5,44,184,42,31,03,251,21,32,29,307,19*74
$GPGSV,4,4,14,41,16,249,36,50,43,202,34*71
$GLGSV,1,1,04,,,,17,,,,12,,,,08,,,,07*6B
$GNGLL,3815.83794,N,14051.91710,E,072521.00,A,D*70
$GNRMC,072522.00,A,3815.83805,N,14051.91719,E,0.126,,031120,,,D*60
$GNVTG,,T,,M,0.126,N,0.233,K,D*3F
$GNGGA,072522.00,3815.83805,N,14051.91719,E,2,09,2.94,51.6,M,36.8,M,,0000*77
$GNGSA,A,3,23,25,50,24,32,15,10,20,12,,,,7.11,2.94,6.47*11
$GNGSA,A,3,,,,,,,,,,,,,7.11,2.94,6.47*11
$GPGSV,4,1,14,10,57,270,40,12,63,119,30,15,27,116,24,17,02,037,15*72
$GPGSV,4,2,14,19,06,055,,20,45,210,42,21,00,316,,23,53,210,40*75
$GPGSV,4,3,14,24,47,052,20,25,44,184,42,31,03,251,,32,29,307,18*77
$GPGSV,4,4,14,41,16,249,35,50,43,202,35*73
$GLGSV,1,1,03,,,,26,,,,26,,,,10*67
$GNGLL,3815.83805,N,14051.91719,E,072522.00,A,D*7D
$GNRMC,072523.00,A,3815.83816,N,14051.91726,E,0.242,,031120,,,D*6E
$GNVTG,,T,,M,0.242,N,0.449,K,D*35
$GNGGA,072523.00,3815.83816,N,14051.91726,E,2,09,2.94,51.0,M,36.8,M,,0000*7E
$GNGSA,A,3,23,25,50,24,32,15,10,20,12,,,,7.11,2.94,6.47*11
$GNGSA,A,3,,,,,,,,,,,,,7.11,2.94,6.47*11
$GPGSV,4,1,14,10,57,270,39,12,63,119,30,15,27,116,23,17,02,037,15*7B
$GPGSV,4,2,14,19,06,055,,20,45,210,41,21,00,316,,23,53,210,40*76
$GPGSV,4,3,14,24,47,052,20,25,44,184,41,31,03,251,,32,29,307,18*74
$GPGSV,4,4,14,41,16,249,35,50,43,202,34*72
$GLGSV,1,1,03,,,,13,,,,11,,,,11*64
$GNGLL,3815.83816,N,14051.91726,E,072523.00,A,D*72
$GNRMC,072524.00,A,3815.83826,N,14051.91734,E,0.124,,031120,,,D*6A
$GNVTG,,T,,M,0.124,N,0.229,K,D*36
$GNGGA,072524.00,3815.83826,N,14051.91734,E,2,09,2.94,50.5,M,36.8,M,,0000*7D
$GNGSA,A,3,23,25,50,24,32,15,10,20,12,,,,7.11,2.94,6.47*11
$GNGSA,A,3,,,,,,,,,,,,,7.11,2.94,6.47*11
$GPGSV,4,1,14,10,57,270,39,12,63,118,30,15,27,116,22,17,02,037,15*7B
$GPGSV,4,2,14,19,06,055,,20,45,210,41,21,00,316,,23,53,210,40*76
$GPGSV,4,3,14,24,47,052,20,25,44,184,41,31,03,251,,32,29,307,17*7B
$GPGSV,4,4,14,41,16,249,35,50,43,202,34*72
$GLGSV,1,1,03,,,,14,,,,14,,,,11*66
$GNGLL,3815.83826,N,14051.91734,E,072524.00,A,D*75
$GNRMC,072525.00,A,3815.83829,N,14051.91735,E,0.163,,031120,,,D*66
$GNVTG,,T,,M,0.163,N,0.301,K,D*3E
$GNGGA,072525.00,3815.83829,N,14051.91735,E,2,09,2.94,50.2,M,36.8,M,,0000*75
$GNGSA,A,3,23,25,50,24,32,15,10,20,12,,,,7.11,2.94,6.47*11
$GNGSA,A,3,,,,,,,,,,,,,7.11,2.94,6.47*11
$GPGSV,4,1,14,10,57,270,39,12,63,118,30,15,27,116,22,17,02,037,14*7A
$GPGSV,4,2,14,19,06,055,,20,45,210,41,21,00,316,,23,53,210,40*76
$GPGSV,4,3,14,24,47,052,20,25,44,184,41,31,03,251,,32,29,307,16*7A
$GPGSV,4,4,14,41,16,249,35,50,43,202,34*72
$GLGSV,1,1,03,,,,13,,,,20,,,,17*60
$GNGLL,3815.83829,N,14051.91735,E,072525.00,A,D*7A
$GNRMC,072526.00,A,3815.83831,N,14051.91732,E,0.088,,031120,,,D*6F
$GNVTG,,T,,M,0.088,N,0.163,K,D*3C
$GNGGA,072526.00,3815.83831,N,14051.91732,E,2,09,2.94,50.2,M,36.8,M,,0000*78
$GNGSA,A,3,23,25,50,24,32,15,10,20,12,,,,7.11,2.94,6.47*11
$GNGSA,A,3,,,,,,,,,,,,,7.11,2.94,6.47*11
$GPGSV,4,1,14,10,57,270,39,12,63,118,30,15,26,116,22,17,02,037,13*7C
$GPGSV,4,2,14,19,06,055,,20,45,210,41,21,00,316,,23,53,210,40*76
$GPGSV,4,3,14,24,47,052,21,25,44,184,41,31,03,251,22,32,29,307,15*78
$GPGSV,4,4,14,41,16,249,35,50,43,202,34*72
$GLGSV,1,1,03,,,,25,,,,29,,,,20*68
$GNGLL,3815.83831,N,14051.91732,E,072526.00,A,D*77
$GNRMC,072527.00,A,3815.83825,N,14051.91721,E,0.068,,031120,,,D*67
$GNVTG,,T,,M,0.068,N,0.127,K,D*32
$GNGGA,072527.00,3815.83825,N,14051.91721,E,2,09,2.94,50.8,M,36.8,M,,0000*74
$GNGSA,A,3,23,25,50,24,32,15,10,20,12,,,,7.11,2.94,6.47*11
$GNGSA,A,3,,,,,,,,,,,,,7.11,2.94,6.47*11
$GPGSV,4,1,14,10,57,270,39,12,63,118,30,15,26,116,22,17,02,037,13*7C
$GPGSV,4,2,14,19,06,055,,20,45,210,41,21,00,316,,23,53,210,40*76
$GPGSV,4,3,14,24,47,052,22,25,44,184,41,31,03,251,,32,29,307,15*7B
$GPGSV,4,4,14,41,16,249,35,50,43,202,34*72
$GLGSV,1,1,01,,,,23*65
$GNGLL,3815.83825,N,14051.91721,E,072527.00,A,D*71
$GNRMC,072528.00,A,3815.83825,N,14051.91717,E,0.085,,031120,,,D*6E
$GNVTG,,T,,M,0.085,N,0.157,K,D*36
$GNGGA,072528.00,3815.83825,N,14051.91717,E,2,09,2.94,50.9,M,36.8,M,,0000*7F
$GNGSA,A,3,23,25,50,24,32,15,10,20,12,,,,7.11,2.94,6.48*1E
$GNGSA,A,3,,,,,,,,,,,,,7.11,2.94,6.48*1E
$GPGSV,4,1,14,10,57,270,39,12,63,118,30,15,26,116,21,17,02,037,12*7E
$GPGSV,4,2,14,19,06,055,,20,45,210,42,21,00,316,,23,53,210,39*7B
$GPGSV,4,3,14,24,47,052,23,25,44,184,41,31,03,251,,32,29,307,13*7C
$GPGSV,4,4,14,41,16,249,35,50,43,202,34*72
$GLGSV,1,1,01,,,,08*6C
$GNGLL,3815.83825,N,14051.91717,E,072528.00,A,D*7B
$GNRMC,072529.00,A,3815.83821,N,14051.91710,E,0.078,,031120,,,D*6E
$GNVTG,,T,,M,0.078,N,0.145,K,D*37
$GNGGA,072529.00,3815.83821,N,14051.91710,E,2,08,2.94,51.4,M,36.8,M,,0000*70
$GNGSA,A,3,23,25,50,24,32,10,20,12,,,,,7.11,2.94,6.48*1A
$GNGSA,A,3,,,,,,,,,,,,,7.11,2.94,6.48*1E
$GPGSV,4,1,14,10,57,270,39,12,63,118,31,15,26,116,,17,02,037,14*7A
$GPGSV,4,2,14,19,06,055,,20,45,210,42,21,00,316,,23,53,210,39*7B
$GPGSV,4,3,14,24,47,052,24,25,44,184,42,31,03,251,21,32,29,307,12*7A
$GPGSV,4,4,14,41,16,249,35,50,43,202,34*72
$GLGSV,1,1,01,,,,10*65
$GNGLL,3815.83821,N,14051.91710,E,072529.00,A,D*79
$GNRMC,072530.00,A,3815.83812,N,14051.91699,E,0.042,,031120,,,D*6F
$GNVTG,,T,,M,0.042,N,0.077,K,D*3E
$GNGGA,072530.00,3815.83812,N,14051.91699,E,2,07,2.94,52.1,M,36.8,M,,0000*71
$GNGSA,A,3,23,25,50,24,10,20,12,,,,,,7.11,2.94,6.48*1B
$GNGSA,A,3,,,,,,,,,,,,,7.11,2.94,6.48*1E
$GPGSV,4,1,14,10,57,270,39,12,63,118,31,15,26,116,,17,02,037,12*7C
$GPGSV,4,2,14,19,06,054,,20,45,210,42,21,00,316,,23,53,210,39*7A
$GPGSV,4,3,14,24,47,052,25,25,44,184,42,31,03,251,,32,29,307,09*72
$GPGSV,4,4,14,41,16,249,35,50,43,202,34*72
$GLGSV,1,1,02,,,,08,,,,04*6B
$GNGLL,3815.83812,N,14051.91699,E,072530.00,A,D*71
$GNRMC,072531.00,A,3815.83801,N,14051.91688,E,0.109,,031120,,,D*62
$GNVTG,,T,,M,0.109,N,0.202,K,D*30
$GNGGA,072531.00,3815.83801,N,14051.91688,E,2,08,2.94,52.7,M,36.8,M,,0000*7B
$GNGSA,A,3,23,25,50,24,32,10,20,12,,,,,7.12,2.94,6.48*19
$GNGSA,A,3,,,,,,,,,,,,,7.12,2.94,6.48*1D
$GPGSV,4,1,14,10,57,270,39,12,63,118,31,15,26,116,,17,02,037,11*7F
$GPGSV,4,2,14,19,06,054,,20,45,210,42,21,00,316,,23,53,210,39*7A
$GPGSV,4,3,14,24,47,052,25,25,44,184,42,31,03,251,,32,29,307,09*72
$GPGSV,4,4,14,41,16,249,35,50,43,202,34*72
$GLGSV,1,1,04,,,,28,,,,09,,,,27,,,,25*60
$GNGLL,3815.83801,N,14051.91688,E,072531.00,A,D*72
$GNRMC,072532.00,A,3815.83784,N,14051.91674,E,0.009,,031120,,,D*61
$GNVTG,,T,,M,0.009,N,0.017,K,D*37
$GNGGA,072532.00,3815.83784,N,14051.91674,E,2,08,2.94,53.6,M,36.8,M,,0000*79
$GNGSA,A,3,23,25,50,24,32,10,20,12,,,,,7.12,2.94,6.48*19
$GNGSA,A,3,,,,,,,,,,,,,7.12,2.94,6.48*1D
$GPGSV,4,1,14,10,57,270,40,12,63,118,31,15,26,116,,17,02,037,11*71
$GPGSV,4,2,14,19,06,054,,20,45,210,42,21,00,315,,23,53,210,39*79
$GPGSV,4,3,14,24,47,052,25,25,44,184,42,31,03,251,,32,29,307,13*79
$GPGSV,4,4,14,41,16,249,35,50,43,202,34*72
$GLGSV,1,1,04,,,,19,,,,14,,,,10,,,,05*68
$GNGLL,3815.83784,N,14051.91674,E,072532.00,A,D*70
$GNRMC,072533.00,A,3815.83765,N,14051.91657,E,0.086,,031120,,,D*69
$GNVTG,,T,,M,0.086,N,0.160,K,D*31
$GNGGA,072533.00,3815.83765,N,14051.91657,E,2,08,2.94,54.6,M,36.8,M,,0000*71
$GNGSA,A,3,23,25,50,24,32,10,20,12,,,,,7.12,2.94,6.48*19
$GNGSA,A,3,,,,,,,,,,,,,7.12,2.94,6.48*1D
$GPGSV,4,1,14,10,57,270,39,12,63,118,31,15,26,116,,17,02,037,12*7C
$GPGSV,4,2,14,19,06,054,,20,45,210,42,21,00,315,,23,53,210,39*79
$GPGSV,4,3,14,24,47,052,25,25,44,184,42,31,03,251,,32,29,307,14*7E
$GPGSV,4,4,14,41,16,249,35,50,43,202,34*72
$GLGSV,1,1,04,,,,28,,,,19,,,,08,,,,24*6D
$GNGLL,3815.83765,N,14051.91657,E,072533.00,A,D*7F
$GNRMC,072534.00,A,3815.83744,N,14051.91642,E,0.047,,031120,,,D*64
$GNVTG,,T,,M,0.047,N,0.088,K,D*3B
$GNGGA,072534.00,3815.83744,N,14051.91642,E,2,08,1.83,55.5,M,36.8,M,,0000*76
$GNGSA,A,3,23,25,50,24,32,10,20,12,,,,,3.77,1.83,3.30*11
$GNGSA,A,3,,,,,,,,,,,,,3.77,1.83,3.30*15
$GPGSV,4,1,14,10,57,270,40,12,63,118,31,15,26,116,,17,02,037,12*72
$GPGSV,4,2,14,19,06,054,,20,45,210,42,21,00,315,,23,53,210,39*79
$GPGSV,4,3,14,24,47,052,25,25,44,184,42,31,03,251,,32,29,307,11*7B
$GPGSV,4,4,14,41,16,249,35,50,43,202,34*72
$GLGSV,1,1,02,,,,27,,,,20*60
$GNGLL,3815.83744,N,14051.91642,E,072534.00,A,D*7F
$GNRMC,072535.00,A,3815.83719,N,14051.91626,E,0.075,,031120,,,D*6E
$GNVTG,,T,,M,0.075,N,0.139,K,D*31
$GNGGA,072535.00,3815.83719,N,14051.91626,E,2,07,2.94,56.6,M,36.8,M,,0000*77
$GNGSA,A,3,23,25,50,24,10,20,12,,,,,,7.12,2.94,6.48*18
$GNGSA,A,3,,,,,,,,,,,,,7.12,2.94,6.48*1D
$GPGSV,4,1,14,10,57,270,40,12,63,118,31,15,26,116,,17,02,037,13*73
$GPGSV,4,2,14,19,06,054,,20,45,210,42,21,00,315,,23,53,210,39*79
$GPGSV,4,3,14,24,47,052,25,25,44,184,42,31,03,251,,32,29,307,*7B
$GPGSV,4,4,14,41,16,249,35,50,43,202,34*72
$GLGSV,1,1,02,,,,27,,,,20*60
$GNGLL,3815.83719,N,14051.91626,E,072535.00,A,D*74
$GNRMC,072536.00,A,3815.83700,N,14051.91616,E,0.243,,031120,,,D*61
$GNVTG,,T,,M,0.243,N,0.451,K,D*3D
$GNGGA,072536.00,3815.83700,N,14051.91616,E,2,07,2.94,57.6,M,36.8,M,,0000*7E
$GNGSA,A,3,23,25,50,24,10,20,12,,,,,,7.12,2.94,6.48*18
$GNGSA,A,3,,,,,,,,,,,,,7.12,2.94,6.48*1D
$GPGSV,4,1,14,10,57,270,40,12,63,118,31,15,26,116,,17,02,037,14*74
$GPGSV,4,2,14,19,06,054,,20,45,210,42,21,00,315,,23,53,210,39*79
$GPGSV,4,3,14,24,47,052,25,25,44,184,42,31,03,251,,32,29,307,*7B
$GPGSV,4,4,14,41,16,249,35,50,43,202,34*72
$GLGSV,1,1,03,,,,25,,,,28,,,,20*69
$GNGLL,3815.83700,N,14051.91616,E,072536.00,A,D*7C
$GNRMC,072537.00,A,3815.83683,N,14051.91597,E,0.208,,031120,,,D*6F
$GNVTG,,T,,M,0.208,N,0.386,K,D*3F
$GNGGA,072537.00,3815.83683,N,14051.91597,E,2,07,2.94,58.5,M,36.8,M,,0000*73
$GNGSA,A,3,23,25,50,24,10,20,12,,,,,,7.12,2.94,6.49*19
$GNGSA,A,3,,,,,,,,,,,,,7.12,2.94,6.49*1C
$GPGSV,4,1,14,10,57,270,39,12,63,118,31,15,26,116,,17,02,037,16*78
$GPGSV,4,2,14,19,06,054,,20,45,210,42,21,00,315,,23,53,210,39*79
$GPGSV,4,3,14,24,47,052,24,25,44,184,42,31,03,251,22,32,29,307,15*7E
$GPGSV,4,4,14,41,16,249,35,50,43,202,34*72
$GLGSV,2,1,06,,,,13,,,,07,,,,23,,,,20*66
$GLGSV,2,2,06,,,,13,,,,07*66
$GNGLL,3815.83683,N,14051.91597,E,072537.00,A,D*7D
$GNRMC,072538.00,A,3815.83667,N,14051.91582,E,0.043,,031120,,,D*63
$GNVTG,,T,,M,0.043,N,0.080,K,D*37
$GNGGA,072538.00,3815.83667,N,14051.91582,E,2,07,2.94,59.3,M,36.8,M,,0000*75
$GNGSA,A,3,23,25,50,24,10,20,12,,,,,,7.12,2.94,6.49*19
$GNGSA,A,3,,,,,,,,,,,,,7.12,2.94,6.49*1C
$GPGSV,4,1,14,10,57,270,40,12,63,118,31,15,26,116,,17,02,037,15*75
$GPGSV,4,2,14,19,06,054,,20,45,210,41,21,00,315,,23,53,210,39*7A
$GPGSV,4,3,14,24,47,052,23,25,44,184,42,31,03,251,,32,29,307,15*79
$GPGSV,4,4,14,41,16,249,35,50,43,202,34*72
$GLGSV,2,1,08,,,,26,,,,24,,,,20,,,,23*6F
$GLGSV,2,2,08,,,,26,,,,24,,,,20,,,,23*6C
$GNGLL,3815.83667,N,14051.91582,E,072538.00,A,D*7C
$GNRMC,072539.00,A,3815.83655,N,14051.91574,E,0.108,,031120,,,D*64
$GNVTG,,T,,M,0.108,N,0.201,K,D*32
$GNGGA,072539.00,3815.83655,N,14051.91574,E,2,07,2.94,59.9,M,36.8,M,,0000*76
$GNGSA,A,3,23,25,50,24,10,20,12,,,,,,7.12,2.94,6.49*19
$GNGSA,A,3,,,,,,,,,,,,,7.12,2.94,6.49*1C
$GPGSV,4,1,14,10,57,270,40,12,63,118,31,15,26,116,,17,02,037,13*73
$GPGSV,4,2,14,19,06,054,,20,45,210,41,21,00,315,,23,53,210,39*7A
$GPGSV,4,3,14,24,47,052,21,25,44,184,42,31,03,251,,32,29,307,16*78
$GPGSV,4,4,14,41,16,249,35,50,43,202,34*72
$GLGSV,2,1,06,,,,14,,,,03,,,,21,,,,23*64
$GLGSV,2,2,06,,,,14,,,,03*65
$GNGLL,3815.83655,N,14051.91574,E,072539.00,A,D*75
$GNRMC,072540.00,A,3815.83641,N,14051.91563,E,0.066,,031120,,,D*60
$GNVTG,,T,,M,0.066,N,0.121,K,D*3A
$GNGGA,072540.00,3815.83641,N,14051.91563,E,2,08,2.94,60.5,M,36.8,M,,0000*72
$GNGSA,A,3,23,25,50,24,32,10,20,12,,,,,7.12,2.94,6.49*18
$GNGSA,A,3,,,,,,,,,,,,,7.12,2.94,6.49*1C
$GPGSV,4,1,14,10,57,270,40,12,63,118,30,15,26,116,,17,02,037,11*70
$GPGSV,4,2,14,19,06,054,,20,45,210,41,21,00,315,,23,53,210,39*7A
$GPGSV,4,3,14,24,47,052,19,25,44,184,42,31,03,251,21,32,29,307,17*71
$GPGSV,4,4,14,41,16,249,35,50,43,202,34*72
$GLGSV,2,1,06,,,,24,,,,22,,,,21,,,,21*66
$GLGSV,2,2,06,,,,24,,,,22*65
$GNGLL,3815.83641,N,14051.91563,E,072540.00,A,D*78
$GNRMC,072541.00,A,3815.83626,N,14051.91555,E,0.024,,031120,,,D*63
$GNVTG,,T,,M,0.024,N,0.044,K,D*3E
$GNGGA,072541.00,3815.83626,N,14051.91555,E,2,08,2.94,61.2,M,36.8,M,,0000*71
$GNGSA,A,3,23,25,50,24,32,10,20,12,,,,,7.13,2.94,6.49*19
$GNGSA,A,3,,,,,,,,,,,,,7.13,2.94,6.49*1D
$GPGSV,4,1,14,10,57,270,40,12,63,118,30,15,26,116,,17,02,037,11*70
$GPGSV,4,2,14,19,06,054,,20,45,210,41,21,00,315,,23,53,210,39*7A
$GPGSV,4,3,14,24,47,052,17,25,44,184,42,31,03,251,,32,29,307,18*73
$GPGSV,4,4,14,41,16,249,35,50,43,202,34*72
$GLGSV,2,1,06,,,,23,,,,22,,,,15,,,,20*67
$GLGSV,2,2,06,,,,23,,,,22*62
$GNGLL,3815.83626,N,14051.91555,E,072541.00,A,D*7D
$GNRMC,072542.00,A,3815.83610,N,14051.91548,E,0.114,,031120,,,D*6B
$GNVTG,,T,,M,0.114,N,0.211,K,D*3E
$GNGGA,072542.00,3815.83610,N,14051.91548,E,2,08,2.94,62.0,M,36.8,M,,0000*7A
$GNGSA,A,3,23,25,50,24,32,10,20,12,,,,,7.13,2.94,6.49*19
$GNGSA,A,3,,,,,,,,,,,,,7.13,2.94,6.49*1D
$GPGSV,4,1,14,10,57,270,40,12,63,118,30,15,26,116,,17,02,037,*70
$GPGSV,4,2,14,19,06,054,,20,45,210,41,21,00,315,,23,53,210,39*7A
$GPGSV,4,3,14,24,47,052,14,25,44,184,42,31,03,251,,32,29,307,18*70
$GPGSV,4,4,14,41,16,249,35,50,43,202,34*72
$GLGSV,2,1,06,,,,08,,,,20,,,,13,,,,18*61
$GLGSV,2,2,06,,,,08,,,,20*69
$GNGLL,3815.83610,N,14051.91548,E,072542.00,A,D*77
$GNRMC,072543.00,A,3815.83597,N,14051.91540,E,0.172,,031120,,,D*6E
$GNVTG,,T,,M,0.172,N,0.318,K,D*36
$GNGGA,072543.00,3815.83597,N,14051.91540,E,2,08,2.94,62.4,M,36.8,M,,0000*7B
$GNGSA,A,3,23,25,50,24,32,10,20,12,,,,,7.13,2.94,6.49*19
$GNGSA,A,3,,,,,,,,,,,,,7.13,2.94,6.49*1D
$GPGSV,4,1,14,10,57,270,40,12,63,118,30,15,26,116,,17,02,037,*70
$GPGSV,4,2,14,19,06,054,,20,45,210,41,21,00,315,,23,53,210,39*7A
$GPGSV,4,3,14,24,47,052,10,25,44,184,42,31,03,251,,32,30,307,18*7C
$GPGSV,4,4,14,41,16,249,35,50,43,202,34*72
$GLGSV,2,1,05,,,,09,,,,18,,,,12,,,,07*67
$GLGSV,2,2,05,,,,09*69
$GNGLL,3815.83597,N,14051.91540,E,072543.00,A,D*72
$GNRMC,072544.00,A,3815.83591,N,14051.91539,E,0.208,,031120,,,D*6F
$GNVTG,,T,,M,0.208,N,0.386,K,D*3F
$GNGGA,072544.00,3815.83591,N,14051.91539,E,2,07,2.94,62.2,M,36.8,M,,0000*7D
$GNGSA,A,3,23,25,50,32,10,20,12,,,,,,7.13,2.94,6.49*1F
$GNGSA,A,3,,,,,,,,,,,,,7.13,2.94,6.49*1D
$GPGSV,4,1,14,10,57,270,40,12,63,118,30,15,26,116,,17,02,037,*70
$GPGSV,4,2,14,19,06,054,,20,45,210,41,21,00,315,,23,53,210,39*7A
$GPGSV,4,3,14,24,47,052,08,25,44,184,42,31,03,251,,32,30,307,19*74
$GPGSV,4,4,14,41,16,249,35,50,43,202,34*72
$GLGSV,2,1,05,,,,11,,,,18,,,,15,,,,11*6E
$GLGSV,2,2,05,,,,11*60
$GNGLL,3815.83591,N,14051.91539,E,072544.00,A,D*7D
$GNRMC,072545.00,A,3815.83583,N,14051.91536,E,0.010,,031120,,,D*69
$GNVTG,,T,,M,0.010,N,0.018,K,D*30
$GNGGA,072545.00,3815.83583,N,14051.91536,E,2,08,2.94,62.1,M,36.8,M,,0000*7C
$GNGSA,A,3,23,25,50,24,32,10,20,12,,,,,7.13,2.94,6.49*19
$GNGSA,A,3,,,,,,,,,,,,,7.13,2.94,6.49*1D
$GPGSV,4,1,14,10,57,270,40,12,63,118,30,15,26,116,,17,02,037,*70
$GPGSV,4,2,14,19,06,054,,20,45,210,41,21,00,315,,23,53,210,39*7A
$GPGSV,4,3,14,24,47,052,10,25,44,184,42,31,03,251,,32,30,307,20*77
$GPGSV,4,4,14,41,16,249,35,50,43,202,34*72
$GLGSV,1,1,03,,,,12,,,,20,,,,23*66
$GNGLL,3815.83583,N,14051.91536,E,072545.00,A,D*70
$GNRMC,072546.00,A,3815.83569,N,14051.91530,E,0.061,,031120,,,D*6E
$GNVTG,,T,,M,0.061,N,0.113,K,D*3C
$GNGGA,072546.00,3815.83569,N,14051.91530,E,2,08,2.95,62.2,M,36.8,M,,0000*7F
$GNGSA,A,3,23,25,50,24,32,10,20,12,,,,,7.13,2.95,6.49*18
$GNGSA,A,3,,,,,,,,,,,,,7.13,2.95,6.49*1C
$GPGSV,4,1,14,10,57,270,40,12,63,118,30,15,26,116,,17,02,037,*70
$GPGSV,4,2,14,19,06,054,,20,45,210,41,21,00,315,,23,53,210,39*7A
$GPGSV,4,3,14,24,47,052,15,25,44,184,42,31,03,251,,32,30,307,20*72
$GPGSV,4,4,14,41,16,249,35,50,43,202,34*72
$GLGSV,1,1,02,,,,20,,,,13*67
$GNGLL,3815.83569,N,14051.91530,E,072546.00,A,D*71
$GNRMC,072547.00,A,3815.83562,N,14051.91528,E,0.071,,031120,,,D*6C
$GNVTG,,T,,M,0.071,N,0.132,K,D*3E
$GNGGA,072547.00,3815.83562,N,14051.91528,E,2,08,2.95,62.0,M,36.8,M,,0000*7E
$GNGSA,A,3,23,25,50,24,32,10,20,12,,,,,7.13,2.95,6.50*10
$GNGSA,A,3,,,,,,,,,,,,,7.13,2.95,6.50*14
$GPGSV,4,1,14,10,57,270,39,12,63,118,30,15,26,116,,17,02,037,*7E
$GPGSV,4,2,14,19,06,054,,20,45,210,41,21,00,315,,23,53,210,39*7A
$GPGSV,4,3,14,24,47,052,17,25,44,184,42,31,03,251,,32,30,307,21*71
$GPGSV,4,4,14,41,16,249,35,50,43,202,34*72
$GLGSV,1,1,02,,,,19,,,,10*6E
$GNGLL,3815.83562,N,14051.91528,E,072547.00,A,D*72
$GNRMC,072548.00,A,3815.83556,N,14051.91525,E,0.141,,031120,,,D*6B
$GNVTG,,T,,M,0.141,N,0.261,K,D*39
$GNGGA,072548.00,3815.83556,N,14051.91525,E,2,08,2.95,61.8,M,36.8,M,,0000*70
$GNGSA,A,3,23,25,50,24,32,10,20,12,,,,,7.13,2.95,6.50*10
$GNGSA,A,3,,,,,,,,,,,,,7.13,2.95,6.50*14
$GPGSV,4,1,14,10,57,270,39,12,63,118,30,15,26,116,,17,02,037,*7E
$GPGSV,4,2,14,19,06,054,,20,45,210,41,21,00,315,,23,53,210,39*7A
$GPGSV,4,3,14,24,47,052,19,25,44,184,42,31,03,251,,32,30,307,22*7C
$GPGSV,4,4,14,41,16,249,35,50,43,202,34*72
$GLGSV,1,1,02,,,,19,,,,17*69
$GNGLL,3815.83556,N,14051.91525,E,072548.00,A,D*77
$GNRMC,072549.00,A,3815.83552,N,14051.91525,E,0.209,,031120,,,D*61
$GNVTG,,T,,M,0.209,N,0.386,K,D*3E
$GNGGA,072549.00,3815.83552,N,14051.91525,E,2,08,2.95,61.7,M,36.8,M,,0000*7A
$GNGSA,A,3,23,25,50,24,32,10,20,12,,,,,7.13,2.95,6.50*10
$GNGSA,A,3,,,,,,,,,,,,,7.13,2.95,6.50*14
$GPGSV,4,1,14,10,57,270,39,12,63,118,30,15,26,116,,17,02,037,*7E
$GPGSV,4,2,14,19,06,054,,20,45,210,41,21,00,315,,23,53,210,39*7A
$GPGSV,4,3,14,24,47,052,20,25,44,184,42,31,03,251,22,32,30,307,22*76
$GPGSV,4,4,14,41,16,249,35,50,43,202,34*72
$GLGSV,1,1,02,,,,18,,,,11*6E
$GNGLL,3815.83552,N,14051.91525,E,072549.00,A,D*72
$GNRMC,072550.00,A,3815.83549,N,14051.91527,E,0.055,,031120,,,D*6A
$GNVTG,,T,,M,0.055,N,0.101,K,D*38
$GNGGA,072550.00,3815.83549,N,14051.91527,E,2,08,2.95,61.4,M,36.8,M,,0000*79
$GNGSA,A,3,23,25,50,24,32,10,20,12,,,,,7.13,2.95,6.50*10
$GNGSA,A,3,,,,,,,,,,,,,7.13,2.95,6.50*14
$GPGSV,4,1,14,10,57,270,39,12,63,118,29,15,26,116,,17,02,037,*76
$GPGSV,4,2,14,19,06,054,,20,45,210,41,21,00,315,,23,53,210,39*7A
$GPGSV,4,3,14,24,47,052,21,25,44,184,42,31,03,251,,32,30,307,22*77
$GPGSV,4,4,14,41,16,249,35,50,43,202,34*72
$GLGSV,1,1,02,,,,19,,,,10*6E
$GNGLL,3815.83549,N,14051.91527,E,072550.00,A,D*72
$GNRMC,072551.00,A,3815.83550,N,14051.91533,E,0.181,,031120,,,D*6E
$GNVTG,,T,,M,0.181,N,0.335,K,D*35
$GNGGA,072551.00,3815.83550,N,14051.91533,E,2,08,2.95,61.1,M,36.8,M,,0000*70
$GNGSA,A,3,23,25,50,24,32,10,20,12,,,,,7.14,2.95,6.50*17
$GNGSA,A,3,,,,,,,,,,,,,7.14,2.95,6.50*13
$GPGSV,4,1,14,10,57,270,39,12,63,118,30,15,26,116,,17,02,037,*7E
$GPGSV,4,2,14,19,06,054,,20,45,210,41,21,00,315,,23,53,210,39*7A
$GPGSV,4,3,14,24,47,052,22,25,44,184,42,31,03,251,,32,30,307,23*75
$GPGSV,4,4,14,41,16,249,35,50,43,202,34*72
$GLGSV,1,1,01,,,,09*6D
$GNGLL,3815.83550,N,14051.91533,E,072551.00,A,D*7E
$GNRMC,072552.00,A,3815.83550,N,14051.91534,E,0.074,,031120,,,D*61
$GNVTG,,T,,M,0.074,N,0.137,K,D*3E
$GNGGA,072552.00,3815.83550,N,14051.91534,E,2,08,2.95,60.8,M,36.8,M,,0000*7C
$GNGSA,A,3,23,25,50,24,32,10,20,12,,,,,7.14,2.95,6.50*17
$GNGSA,A,3,,,,,,,,,,,,,7.14,2.95,6.50*13
$GPGSV,4,1,14,10,57,270,39,12,63,118,29,15,26,116,,17,02,037,*76
$GPGSV,4,2,14,19,06,054,,20,45,210,41,21,00,315,,23,53,210,39*7A
$GPGSV,4,3,14,24,47,052,22,25,44,184,42,31,03,251,,32,30,307,23*75
$GPGSV,4,4,14,41,16,249,35,50,43,202,34*72
$GLGSV,1,1,01,,,,19*6C
$GNGLL,3815.83550,N,14051.91534,E,072552.00,A,D*7A
$GNRMC,072553.00,A,3815.83552,N,14051.91536,E,0.040,,031120,,,D*67
$GNVTG,,T,,M,0.040,N,0.074,K,D*3F
$GNGGA,072553.00,3815.83552,N,14051.91536,E,2,08,2.95,60.6,M,36.8,M,,0000*73
$GNGSA,A,3,23,25,50,24,32,10,20,12,,,,,7.14,2.95,6.50*17
$GNGSA,A,3,,,,,,,,,,,,,7.14,2.95,6.50*13
$GPGSV,4,1,14,10,57,270,39,12,63,118,29,15,26,116,,17,02,037,*76
$GPGSV,4,2,14,19,06,054,,20,45,210,41,21,00,315,,23,53,210,38*7B
$GPGSV,4,3,14,24,47,052,22,25,44,184,42,31,03,251,,32,30,307,23*75
$GPGSV,4,4,14,41,16,249,35,50,43,202,34*72
$GLGSV,1,1,01,,,,19*6C
$GNGLL,3815.83552,N,14051.91536,E,072553.00,A,D*7B
$GNRMC,072554.00,A,3815.83554,N,14051.91539,E,0.032,,031120,,,D*6C
$GNVTG,,T,,M,0.032,N,0.059,K,D*35
$GNGGA,072554.00,3815.83554,N,14051.91539,E,2,08,2.95,60.3,M,36.8,M,,0000*78
$GNGSA,A,3,23,25,50,24,32,10,20,12,,,,,7.14,2.95,6.50*17
$GNGSA,A,3,,,,,,,,,,,,,7.14,2.95,6.50*13
$GPGSV,4,1,14,10,57,270,39,12,63,118,30,15,26,116,,17,02,037,*7E
$GPGSV,4,2,14,19,06,054,,20,45,210,41,21,00,315,,23,53,210,38*7B
$GPGSV,4,3,14,24,47,052,22,25,44,184,42,31,03,251,,32,30,307,23*75
$GPGSV,4,4,14,41,16,249,35,50,43,202,34*72
$GLGSV,1,1,01,,,,27*61
$GNGLL,3815.83554,N,14051.91539,E,072554.00,A,D*75
$GNRMC,072555.00,A,3815.83556,N,14051.91541,E,0.040,,031120,,,D*65
$GNVTG,,T,,M,0.040,N,0.074,K,D*3F
$GNGGA,072555.00,3815.83556,N,14051.91541,E,2,08,2.95,60.2,M,36.8,M,,0000*75
$GNGSA,A,3,23,25,50,24,32,10,20,12,,,,,7.14,2.95,6.50*17
$GNGSA,A,3,,,,,,,,,,,,,7.14,2.95,6.50*13
$GPGSV,4,1,14,10,57,270,39,12,63,118,29,15,26,116,,17,02,037,*76
$GPGSV,4,2,14,19,06,054,,20,45,210,41,21,00,315,,23,53,210,38*7B
$GPGSV,4,3,14,24,47,052,22,25,44,184,42,31,03,251,,32,30,307,22*74
$GPGSV,4,4,14,41,16,249,35,50,43,202,34*72
$GLGSV,1,1,02,,,,25,,,,22*60
$GNGLL,3815.83556,N,14051.91541,E,072555.00,A,D*79
$GNRMC,072556.00,A,3815.83559,N,14051.91544,E,0.113,,031120,,,D*6B
$GNVTG,,T,,M,0.113,N,0.209,K,D*30
$GNGGA,072556.00,3815.83559,N,14051.91544,E,2,08,2.95,60.2,M,36.8,M,,0000*7C
$GNGSA,A,3,23,25,50,24,32,10,20,12,,,,,7.14,2.95,6.50*17
$GNGSA,A,3,,,,,,,,,,,,,7.14,2.95,6.50*13
$GPGSV,4,1,14,10,57,270,39,12,63,118,29,15,26,116,,17,02,037,*76
$GPGSV,4,2,14,19,06,054,,20,45,210,41,21,00,315,,23,53,210,38*7B
$GPGSV,4,3,14,24,47,052,21,25,44,184,42,31,03,251,,32,30,307,22*77
$GPGSV,4,4,14,41,16,249,35,50,43,202,34*72
$GLGSV,1,1,02,,,,24,,,,21*62
$GNGLL,3815.83559,N,14051.91544,E,072556.00,A,D*70
$GNRMC,072557.00,A,3815.83563,N,14051.91548,E,0.035,,031120,,,D*6A
$GNVTG,,T,,M,0.035,N,0.064,K,D*3C
$GNGGA,072557.00,3815.83563,N,14051.91548,E,2,08,2.95,60.2,M,36.8,M,,0000*78
$GNGSA,A,3,23,25,50,24,32,10,20,12,,,,,7.14,2.95,6.50*17
$GNGSA,A,3,,,,,,,,,,,,,7.14,2.95,6.50*13
$GPGSV,4,1,14,10,57,270,39,12,63,118,30,15,26,116,22,17,02,037,*7E
$GPGSV,4,2,14,19,06,054,,20,45,210,42,21,00,315,,23,53,210,38*78
$GPGSV,4,3,14,24,47,052,20,25,44,184,42,31,03,251,21,32,30,307,23*74
$GPGSV,4,4,14,41,16,249,35,50,43,202,34*72
$GLGSV,1,1,02,,,,21,,,,19*6C
$GNGLL,3815.83563,N,14051.91548,E,072557.00,A,D*74
$GNRMC,072558.00,A,3815.83567,N,14051.91546,E,0.030,,031120,,,D*6A
$GNVTG,,T,,M,0.030,N,0.055,K,D*3B
$GNGGA,072558.00,3815.83567,N,14051.91546,E,2,08,2.95,60.3,M,36.8,M,,0000*7C
$GNGSA,A,3,23,25,50,24,32,10,20,12,,,,,7.14,2.95,6.51*16
$GNGSA,A,3,,,,,,,,,,,,,7.14,2.95,6.51*12
$GPGSV,4,1,14,10,57,270,39,12,63,118,30,15,26,116,,17,02,037,*7E
$GPGSV,4,2,14,19,06,054,,20,45,210,42,21,00,315,,23,53,210,38*78
$GPGSV,4,3,14,24,47,052,19,25,44,184,42,31,03,251,,32,30,307,22*7C
$GPGSV,4,4,14,41,16,249,35,50,43,202,34*72
$GLGSV,1,1,02,,,,21,,,,20*66
$GNGLL,3815.83567,N,14051.91546,E,072558.00,A,D*71
$GNRMC,072559.00,A,3815.83570,N,14051.91551,E,0.171,,031120,,,D*6F
$GNVTG,,T,,M,0.171,N,0.317,K,D*3A
$GNGGA,072559.00,3815.83570,N,14051.91551,E,2,08,2.95,60.6,M,36.8,M,,0000*78
$GNGSA,A,3,23,25,50,24,32,10,20,12,,,,,7.14,2.95,6.51*16
$GNGSA,A,3,,,,,,,,,,,,,7.14,2.95,6.51*12
$GPGSV,4,1,14,10,57,270,39,12,63,118,30,15,26,116,,17,02,037,*7E
$GPGSV,4,2,14,19,06,054,,20,45,210,42,21,00,315,,23,53,210,38*78
$GPGSV,4,3,14,24,47,052,17,25,44,184,42,31,03,251,,32,30,307,22*72
$GPGSV,4,4,14,41,16,249,35,50,43,202,34*72
$GLGSV,1,1,02,,,,26,,,,27*66
$GNGLL,3815.83570,N,14051.91551,E,072559.00,A,D*70
$GNRMC,072600.00,A,3815.83566,N,14051.91545,E,0.137,,031120,,,D*60
$GNVTG,,T,,M,0.137,N,0.254,K,D*3E
$GNGGA,072600.00,3815.83566,N,14051.91545,E,2,08,2.95,61.0,M,36.8,M,,0000*72
$GNGSA,A,3,23,25,50,24,32,10,20,12,,,,,7.14,2.95,6.51*16
$GNGSA,A,3,,,,,,,,,,,,,7.14,2.95,6.51*12
$GPGSV,4,1,14,10,57,270,39,12,63,118,30,15,26,116,,17,02,037,*7E
$GPGSV,4,2,14,19,06,054,,20,45,210,42,21,00,315,,23,53,210,38*78
$GPGSV,4,3,14,24,47,052,16,25,44,184,42,31,03,251,,32,30,307,22*73
$GPGSV,4,4,14,41,16,249,35,50,43,202,34*72
$GLGSV,2,1,05,,,,09,,,,26,,,,22,,,,25*69
$GLGSV,2,2,05,,,,09*69
$GNGLL,3815.83566,N,14051.91545,E,072600.00,A,D*7D
$GNRMC,072601.00,A,3815.83558,N,14051.91535,E,0.072,,031120,,,D*6B
$GNVTG,,T,,M,0.072,N,0.134,K,D*3B
$GNGGA,072601.00,3815.83558,N,14051.91535,E,2,08,2.95,61.6,M,36.8,M,,0000*7F
$GNGSA,A,3,23,25,50,24,32,10,20,12,,,,,7.15,2.95,6.51*17
$GNGSA,A,3,,,,,,,,,,,,,7.15,2.95,6.51*13
$GPGSV,4,1,14,10,57,270,39,12,63,118,31,15,26,116,,17,02,037,*7F
$GPGSV,4,2,14,19,06,054,,20,45,210,42,21,00,315,,23,53,210,38*78
$GPGSV,4,3,14,24,47,052,16,25,44,184,42,31,03,251,,32,30,307,22*73
$GPGSV,4,4,14,41,16,249,35,50,43,202,34*72
$GLGSV,2,1,05,,,,21,,,,27,,,,21,,,,12*65
$GLGSV,2,2,05,,,,21*63
$GNGLL,3815.83558,N,14051.91535,E,072601.00,A,D*76
$GNRMC,072602.00,A,3815.83560,N,14051.91540,E,0.011,,031120,,,D*64
$GNVTG,,T,,M,0.011,N,0.020,K,D*3A
$GNGGA,072602.00,3815.83560,N,14051.91540,E,2,08,2.95,61.8,M,36.8,M,,0000*7B
$GNGSA,A,3,23,25,50,24,32,10,20,12,,,,,7.15,2.95,6.51*17
$GNGSA,A,3,,,,,,,,,,,,,7.15,2.95,6.51*13
$GPGSV,4,1,14,10,57,270,40,12,63,118,31,15,26,116,,17,02,037,*71
$GPGSV,4,2,14,19,06,054,,20,45,210,42,21,00,315,,23,53,210,38*78
$GPGSV,4,3,14,24,47,052,16,25,44,184,42,31,03,251,,32,30,307,21*70
$GPGSV,4,4,14,41,16,249,35,50,43,202,34*72
$GLGSV,2,1,05,,,,24,,,,27,,,,21,,,,26*67
$GLGSV,2,2,05,,,,24*66
$GNGLL,3815.83560,N,14051.91540,E,072602.00,A,D*7C
$GNRMC,072603.00,A,3815.83561,N,14051.91535,E,0.070,,031120,,,D*61
$GNVTG,,T,,M,0.070,N,0.130,K,D*3D
$GNGGA,072603.00,3815.83561,N,14051.91535,E,2,08,2.95,62.1,M,36.8,M,,0000*73
$GNGSA,A,3,23,25,50,24,32,10,20,12,,,,,7.15,2.95,6.51*17
$GNGSA,A,3,,,,,,,,,,,,,7.15,2.95,6.51*13
$GPGSV,4,1,14,10,57,270,40,12,63,118,31,15,26,116,,17,02,037,*71
$GPGSV,4,2,14,19,06,054,,20,45,210,42,21,00,315,,23,53,210,38*78
$GPGSV,4,3,14,24,47,052,17,25,44,184,42,31,03,251,,32,30,307,21*71
$GPGSV,4,4,14,41,16,249,35,50,43,202,34*72
$GLGSV,2,1,05,,,,23,,,,30,,,,24,,,,21*64
$GLGSV,2,2,05,,,,23*61
$GNGLL,3815.83561,N,14051.91535,E,072603.00,A,D*7E
$GNRMC,072604.00,A,3815.83561,N,14051.91534,E,0.086,,031120,,,D*6E
$GNVTG,,T,,M,0.086,N,0.158,K,D*3A
$GNGGA,072604.00,3815.83561,N,14051.91534,E,2,08,2.95,62.5,M,36.8,M,,0000*71
$GNGSA,A,3,23,25,50,24,32,10,20,12,,,,,7.15,2.95,6.51*17
$GNGSA,A,3,,,,,,,,,,,,,7.15,2.95,6.51*13
$GPGSV,4,1,14,10,57,270,40,12,63,118,31,15,26,116,,17,02,037,*71
$GPGSV,4,2,14,19,06,054,,20,45,210,42,21,00,315,,23,53,210,38*78
$GPGSV,4,3,14,24,47,052,18,25,44,184,42,31,03,251,22,32,30,307,20*7F
$GPGSV,4,4,14,41,16,249,35,50,43,202,34*72
$GLGSV,3,1,09,,,,25,,,,22,,,,23,,,,24*6E
$GLGSV,3,2,09,,,,25,,,,22,,,,23,,,,24*6D
$GLGSV,3,3,09*6C
$GNGLL,3815.83561,N,14051.91534,E,072604.00,A,D*78
$GNRMC,072605.00,A,3815.83550,N,14051.91526,E,0.072,,031120,,,D*65
$GNVTG,,T,,M,0.072,N,0.133,K,D*3C
$GNGGA,072605.00,3815.83550,N,14051.91526,E,2,08,2.95,63.3,M,36.8,M,,0000*76
$GNGSA,A,3,23,25,50,24,32,10,20,12,,,,,7.15,2.95,6.51*17
$GNGSA,A,3,,,,,,,,,,,,,7.15,2.95,6.51*13
$GPGSV,4,1,14,10,57,270,40,12,63,118,32,15,26,116,,17,02,037,*72
$GPGSV,4,2,14,19,06,054,,20,45,210,41,21,00,315,,23,53,210,39*7A
$GPGSV,4,3,14,24,47,052,18,25,44,184,42,31,03,251,,32,30,307,20*7F
$GPGSV,4,4,14,41,16,249,35,50,43,202,34*72
$GLGSV,2,1,06,,,,05,,,,24,,,,24,,,,05*60
$GLGSV,2,2,06,,,,05*66
$GNGLL,3815.83550,N,14051.91526,E,072605.00,A,D*78
$GNRMC,072606.00,A,3815.83541,N,14051.91519,E,0.006,,031120,,,D*69
$GNVTG,,T,,M,0.006,N,0.012,K,D*3D
$GNGGA,072606.00,3815.83541,N,14051.91519,E,2,08,2.95,63.9,M,36.8,M,,0000*73
$GNGSA,A,3,23,25,50,24,32,10,20,12,,,,,7.15,2.95,6.51*17
$GNGSA,A,3,,,,,,,,,,,,,7.15,2.95,6.51*13
$GPGSV,4,1,14,10,57,270,40,12,63,118,32,15,26,116,,17,02,037,*72
$GPGSV,4,2,14,19,06,054,,20,45,210,41,21,00,315,,23,53,210,39*7A
$GPGSV,4,3,14,24,47,052,19,25,44,184,42,31,03,251,,32,30,307,20*7E
$GPGSV,4,4,14,41,16,249,35,50,43,202,34*72
$GLGSV,2,1,07,,,,07,,,,20,,,,20,,,,20*64
$GLGSV,2,2,07,,,,07,,,,20*67
$GNGLL,3815.83541,N,14051.91519,E,072606.00,A,D*77
$GNRMC,072607.00,A,3815.83534,N,14051.91514,E,0.043,,031120,,,D*66
$GNVTG,,T,,M,0.043,N,0.079,K,D*31
$GNGGA,072607.00,3815.83534,N,14051.91514,E,2,08,2.95,64.4,M,36.8,M,,0000*77
$GNGSA,A,3,23,25,50,24,32,10,20,12,,,,,7.15,2.95,6.51*17
$GNGSA,A,3,,,,,,,,,,,,,7.15,2.95,6.51*13
$GPGSV,4,1,14,10,57,270,40,12,63,118,32,15,26,116,,17,02,037,*72
$GPGSV,4,2,14,19,06,054,,20,45,210,41,21,00,315,,23,53,210,39*7A
$GPGSV,4,3,14,24,47,052,20,25,44,184,42,31,03,251,,32,30,307,19*7E
$GPGSV,4,4,14,41,16,249,35,50,43,202,34*72
$GLGSV,2,1,07,,,,10,,,,18,,,,18,,,,19*68
$GLGSV,2,2,07,,,,10,,,,18*6A
$GNGLL,3815.83534,N,14051.91514,E,072607.00,A,D*79
$GNRMC,072608.00,A,3815.83532,N,14051.91515,E,0.054,,031120,,,D*68
$GNVTG,,T,,M,0.054,N,0.101,K,D*39
$GNGGA,072608.00,3815.83532,N,14051.91515,E,2,08,2.95,64.4,M,36.8,M,,0000*7F
$GNGSA,A,3,23,25,50,24,32,10,20,12,,,,,7.15,2.95,6.51*17
$GNGSA,A,3,,,,,,,,,,,,,7.15,2.95,6.51*13
$GPGSV,4,1,14,10,57,270,40,12,63,118,32,15,26,116,,17,02,037,*72
$GPGSV,4,2,14,19,06,054,,20,45,210,41,21,00,315,,23,53,210,39*7A
$GPGSV,4,3,14,24,47,052,21,25,44,184,42,31,03,251,21,32,30,307,19*7C
$GPGSV,4,4,14,41,16,249,35,50,43,202,34*72
$GLGSV,2,1,06,,,,14,,,,28,,,,16,,,,19*60
$GLGSV,2,2,06,,,,14*66
$GNGLL,3815.83532,N,14051.91515,E,072608.00,A,D*71
$GNRMC,072609.00,A,3815.83524,N,14051.91514,E,0.127,,031120,,,D*6A
$GNVTG,,T,,M,0.127,N,0.235,K,D*38
$GNGGA,072609.00,3815.83524,N,14051.91514,E,2,08,2.95,64.5,M,36.8,M,,0000*79
$GNGSA,A,3,23,25,50,24,32,10,20,12,,,,,7.15,2.95,6.52*14
$GNGSA,A,3,,,,,,,,,,,,,7.15,2.95,6.52*10
$GPGSV,4,1,14,10,57,270,40,12,63,118,31,15,26,116,,17,02,037,*71
$GPGSV,4,2,14,19,06,054,,20,45,210,41,21,00,315,,23,53,210,39*7A
$GPGSV,4,3,14,24,47,052,22,25,44,184,42,31,03,251,,32,30,307,17*72
$GPGSV,4,4,14,41,16,249,35,50,43,202,34*72
$GLGSV,2,1,05,,,,17,,,,17,,,,15,,,,17*61
$GLGSV,2,2,05,,,,17*66
$GNGLL,3815.83524,N,14051.91514,E,072609.00,A,D*76
$GNRMC,072610.00,A,3815.83514,N,14051.91514,E,0.137,,031120,,,D*60
$GNVTG,,T,,M,0.137,N,0.253,K,D*39
$GNGGA,072610.00,3815.83514,N,14051.91514,E,2,08,2.95,64.6,M,36.8,M,,0000*71
$GNGSA,A,3,23,25,50,24,32,10,20,12,,,,,7.15,2.95,6.52*14
$GNGSA,A,3,,,,,,,,,,,,,7.15,2.95,6.52*10
$GPGSV,4,1,14,10,57,270,40,12,63,118,32,15,26,116,,17,02,037,*72
$GPGSV,4,2,14,19,06,054,,20,45,210,41,21,00,315,,23,53,210,39*7A
$GPGSV,4,3,14,24,47,052,22,25,44,184,42,31,03,251,,32,30,307,16*73
$GPGSV,4,4,14,41,16,249,35,50,43,202,34*72
$GLGSV,2,1,05,,,,17,,,,11,,,,09,,,,12*6F
$GLGSV,2,2,05,,,,17*66
$GNGLL,3815.83514,N,14051.91514,E,072610.00,A,D*7D
$GNRMC,072611.00,A,3815.83508,N,14051.91513,E,0.102,,031120,,,D*6D
$GNVTG,,T,,M,0.102,N,0.188,K,D*3A
$GNGGA,072611.00,3815.83508,N,14051.91513,E,2,08,2.95,64.5,M,36.8,M,,0000*79
$GNGSA,A,3,23,25,50,24,32,10,20,12,,,,,7.15,2.95,6.52*14
$GNGSA,A,3,,,,,,,,,,,,,7.15,2.95,6.52*10
$GPGSV,4,1,14,10,57,270,40,12,63,118,32,15,26,116,,17,02,037,*72
$GPGSV,4,2,14,19,06,054,,20,45,210,41,21,00,315,,23,53,210,39*7A
$GPGSV,4,3,14,24,47,052,23,25,44,184,42,31,03,251,,32,30,307,16*72
$GPGSV,4,4,14,41,16,249,35,50,43,202,34*72
$GLGSV,2,1,05,,,,14,,,,11,,,,11,,,,17*60
$GLGSV,2,2,05,,,,14*65
$GNGLL,3815.83508,N,14051.91513,E,072611.00,A,D*76
$GNRMC,072612.00,A,3815.83508,N,14051.91515,E,0.056,,031120,,,D*68
$GNVTG,,T,,M,0.056,N,0.103,K,D*39
$GNGGA,072612.00,3815.83508,N,14051.91515,E,2,08,2.95,64.1,M,36.8,M,,0000*78
$GNGSA,A,3,23,25,50,24,32,10,20,12,,,,,7.16,2.95,6.52*17
$GNGSA,A,3,,,,,,,,,,,,,7.16,2.95,6.52*13
$GPGSV,4,1,14,10,57,270,40,12,63,118,32,15,26,116,,17,02,037,*72
$GPGSV,4,2,14,19,06,054,,20,45,210,41,21,00,315,,23,53,210,39*7A
$GPGSV,4,3,14,24,47,052,23,25,44,184,42,31,03,251,,32,30,307,16*72
$GPGSV,4,4,14,41,16,249,35,50,43,202,34*72
$GLGSV,2,1,05,,,,09,,,,15,,,,10,,,,18*66
$GLGSV,2,2,05,,,,09*69
$GNGLL,3815.83508,N,14051.91515,E,072612.00,A,D*73
$GNRMC,072613.00,A,3815.83509,N,14051.91519,E,0.061,,031120,,,D*60
$GNVTG,,T,,M,0.061,N,0.113,K,D*3C
$GNGGA,072613.00,3815.83509,N,14051.91519,E,2,08,2.95,63.6,M,36.8,M,,0000*74
$GNGSA,A,3,23,25,50,24,32,10,20,12,,,,,7.16,2.95,6.52*17
$GNGSA,A,3,,,,,,,,,,,,,7.16,2.95,6.52*13
$GPGSV,4,1,14,10,57,270,40,12,63,118,31,15,26,116,,17,02,037,*71
$GPGSV,4,2,14,19,06,054,,20,45,210,41,21,00,315,,23,53,210,39*7A
$GPGSV,4,3,14,24,47,052,23,25,44,184,42,31,03,251,,32,30,307,15*71
$GPGSV,4,4,14,41,16,249,35,50,43,202,34*72
$GLGSV,1,1,04,,,,09,,,,17,,,,08,,,,15*62
$GNGLL,3815.83509,N,14051.91519,E,072613.00,A,D*7F
$GNRMC,072614.00,A,3815.83513,N,14051.91524,E,0.076,,031120,,,D*64
$GNVTG,,T,,M,0.076,N,0.141,K,D*3D
$GNGGA,072614.00,3815.83513,N,14051.91524,E,2,08,2.95,63.1,M,36.8,M,,0000*71
$GNGSA,A,3,23,25,50,24,32,10,20,12,,,,,7.16,2.95,6.52*17
$GNGSA,A,3,,,,,,,,,,,,,7.16,2.95,6.52*13
$GPGSV,4,1,14,10,57,270,40,12,63,118,31,15,26,116,,17,02,037,*71
$GPGSV,4,2,14,19,06,054,,20,45,210,41,21,00,315,,23,53,210,39*7A
$GPGSV,4,3,14,24,47,052,22,25,44,184,42,31,03,251,,32,30,307,15*70
$GPGSV,4,4,14,41,16,249,35,50,43,202,34*72
$GLGSV,1,1,03,,,,13,,,,05,,,,14*64
$GNGLL,3815.83513,N,14051.91524,E,072614.00,A,D*7D
$GNRMC,072615.00,A,3815.83517,N,14051.91529,E,0.049,,031120,,,D*60
$GNVTG,,T,,M,0.049,N,0.091,K,D*3D
$GNGGA,072615.00,3815.83517,N,14051.91529,E,2,08,2.95,62.4,M,36.8,M,,0000*7D
$GNGSA,A,3,23,25,50,24,32,10,20,12,,,,,7.16,2.95,6.52*17
$GNGSA,A,3,,,,,,,,,,,,,7.16,2.95,6.52*13
$GPGSV,4,1,14,10,57,269,40,12,63,118,31,15,26,116,,17,02,037,*79
$GPGSV,4,2,14,19,06,054,,20,45,210,41,21,00,315,,23,53,210,39*7A
$GPGSV,4,3,14,24,47,052,21,25,44,184,42,31,03,251,,32,30,307,14*72
$GPGSV,4,4,14,41,16,249,35,50,43,202,34*72
$GLGSV,1,1,03,,,,20,,,,06,,,,05*67
$GNGLL,3815.83517,N,14051.91529,E,072615.00,A,D*75
$GNRMC,072616.00,A,3815.83518,N,14051.91534,E,0.027,,031120,,,D*68
$GNVTG,,T,,M,0.027,N,0.050,K,D*38
$GNGGA,072616.00,3815.83518,N,14051.91534,E,2,08,2.95,61.9,M,36.8,M,,0000*73
$GNGSA,A,3,23,25,50,24,32,10,20,12,,,,,7.16,2.95,6.52*17
$GNGSA,A,3,,,,,,,,,,,,,7.16,2.95,6.52*13
$GPGSV,4,1,14,10,57,269,40,12,63,118,32,15,26,116,,17,02,037,*7A
$GPGSV,4,2,14,19,06,054,,20,45,210,41,21,00,315,,23,53,210,39*7A
$GPGSV,4,3,14,24,47,052,21,25,44,184,42,31,03,251,,32,30,307,14*72
$GPGSV,4,4,14,41,16,249,35,50,43,202,34*72
$GLGSV,1,1,02,,,,23,,,,05*63
$GNGLL,3815.83518,N,14051.91534,E,072616.00,A,D*75
$GNRMC,072617.00,A,3815.83518,N,14051.91538,E,0.029,,031120,,,D*6B
$GNVTG,,T,,M,0.029,N,0.054,K,D*32
$GNGGA,072617.00,3815.83518,N,14051.91538,E,2,08,2.95,61.6,M,36.8,M,,0000*71
$GNGSA,A,3,23,25,50,24,32,10,20,12,,,,,7.16,2.95,6.52*17
$GNGSA,A,3,,,,,,,,,,,,,7.16,2.95,6.52*13
$GPGSV,4,1,14,10,57,269,40,12,64,117,31,15,26,116,,17,02,037,*71
$GPGSV,4,2,14,19,06,054,,20,45,210,41,21,00,315,,23,53,210,39*7A
$GPGSV,4,3,14,24,47,052,20,25,44,184,42,31,03,251,,32,30,307,14*73
$GPGSV,4,4,14,41,16,249,35,50,43,202,34*72
$GLGSV,1,1,02,,,,24,,,,21*62
$GNGLL,3815.83518,N,14051.91538,E,072617.00,A,D*78
$GNRMC,072618.00,A,3815.83521,N,14051.91542,E,0.034,,031120,,,D*6F
$GNVTG,,T,,M,0.034,N,0.063,K,D*3A
$GNGGA,072618.00,3815.83521,N,14051.91542,E,2,08,2.95,61.1,M,36.8,M,,0000*7E
$GNGSA,A,3,23,25,50,24,32,10,20,12,,,,,7.16,2.95,6.52*17
$GNGSA,A,3,,,,,,,,,,,,,7.16,2.95,6.52*13
$GPGSV,4,1,14,10,57,269,38,12,64,117,31,15,26,116,,17,02,037,*7E
$GPGSV,4,2,14,19,06,054,,20,45,210,40,21,00,315,,23,53,210,39*7B
$GPGSV,4,3,14,24,47,052,19,25,44,184,42,31,03,251,,32,30,307,14*79
$GPGSV,4,4,14,41,16,249,31,50,43,202,34*76
$GLGSV,1,1,01,,,,04*60
$GNGLL,3815.83521,N,14051.91542,E,072618.00,A,D*70
$GNRMC,072619.00,A,3815.83529,N,14051.91550,E,0.152,,031120,,,D*64
$GNVTG,,T,,M,0.152,N,0.281,K,D*35
$GNGGA,072619.00,3815.83529,N,14051.91550,E,2,08,2.95,60.4,M,36.8,M,,0000*70
$GNGSA,A,3,23,25,50,24,32,10,20,12,,,,,7.16,2.95,6.52*17
$GNGSA,A,3,,,,,,,,,,,,,7.16,2.95,6.52*13
$GPGSV,4,1,14,10,57,269,37,12,64,117,31,15,26,116,,17,02,037,*71
$GPGSV,4,2,14,19,06,054,,20,45,210,41,21,00,315,,23,53,210,39*7A
$GPGSV,4,3,14,24,47,052,17,25,44,184,42,31,03,251,,32,30,307,16*75
$GPGSV,4,4,14,41,16,249,34,50,43,202,34*73
$GLGSV,1,1,00*65
$GNGLL,3815.83529,N,14051.91550,E,072619.00,A,D*7A
$GNRMC,072620.00,A,3815.83533,N,14051.91555,E,0.086,,031120,,,D*68
$GNVTG,,T,,M,0.086,N,0.158,K,D*3A
$GNGGA,072620.00,3815.83533,N,14051.91555,E,2,08,2.95,59.8,M,36.8,M,,0000*72
$GNGSA,A,3,23,25,50,24,32,10,20,12,,,,,7.16,2.95,6.53*16
$GNGSA,A,3,,,,,,,,,,,,,7.16,2.95,6.53*12
$GPGSV,4,1,14,10,57,269,35,12,64,117,31,15,26,116,,17,02,037,*73
$GPGSV,4,2,14,19,06,054,,20,45,210,40,21,00,315,,23,53,210,39*7B
$GPGSV,4,3,14,24,47,052,13,25,44,184,40,31,03,251,,32,30,307,18*7D
$GPGSV,4,4,14,41,16,249,32,50,43,202,34*75
$GLGSV,1,1,01,,,,07*63
$GNGLL,3815.83533,N,14051.91555,E,072620.00,A,D*7E
$GNRMC,072621.00,A,3815.83516,N,14051.91582,E,2.180,71.09,031120,,,D*40
$GNVTG,71.09,T,,M,2.180,N,4.038,K,D*1D
$GNGGA,072621.00,3815.83516,N,14051.91582,E,2,07,1.67,60.8,M,36.8,M,,0000*75
$GNGSA,A,3,23,25,24,32,10,20,12,,,,,,4.21,1.67,3.87*16
$GNGSA,A,3,,,,,,,,,,,,,4.21,1.67,3.87*17
$GPGSV,4,1,14,10,57,269,34,12,64,117,24,15,26,116,15,17,02,037,*72
$GPGSV,4,2,14,19,06,054,,20,45,210,34,21,00,315,,23,53,210,25*75
$GPGSV,4,3,14,24,47,052,17,25,44,184,23,31,03,251,,32,30,307,18*7C
$GPGSV,4,4,14,41,16,249,32,50,43,202,*72
$GLGSV,1,1,01,,,,05*61
$GNGLL,3815.83516,N,14051.91582,E,072621.00,A,D*72
$GNRMC,072622.00,A,3815.83513,N,14051.91576,E,0.689,,031120,,,D*60
$GNVTG,,T,,M,0.689,N,1.275,K,D*3E
$GNGGA,072622.00,3815.83513,N,14051.91576,E,2,07,1.67,61.6,M,36.8,M,,0000*77
$GNGSA,A,3,23,25,24,32,10,20,12,,,,,,4.21,1.67,3.87*16
$GNGSA,A,3,,,,,,,,,,,,,4.21,1.67,3.87*17
$GPGSV,4,1,14,10,57,269,34,12,64,117,22,15,26,116,13,17,02,037,*72
$GPGSV,4,2,14,19,06,054,,20,45,210,32,21,00,315,,23,53,210,31*76
$GPGSV,4,3,14,24,47,052,20,25,44,184,25,31,03,251,,32,30,307,18*7E
$GPGSV,4,4,14,41,16,249,28,50,43,202,*79
$GLGSV,1,1,01,,,,05*61
$GNGLL,3815.83513,N,14051.91576,E,072622.00,A,D*7F
$GNRMC,072623.00,A,3815.83493,N,14051.91549,E,0.261,,031120,,,D*66
$GNVTG,,T,,M,0.261,N,0.482,K,D*33
$GNGGA,072623.00,3815.83493,N,14051.91549,E,2,07,1.67,62.3,M,36.8,M,,0000*75
$GNGSA,A,3,23,25,24,32,10,20,12,,,,,,4.21,1.67,3.87*16
$GNGSA,A,3,,,,,,,,,,,,,4.21,1.67,3.87*17
$GPGSV,4,1,14,10,57,269,30,12,64,117,22,15,26,116,10,17,02,037,*75
$GPGSV,4,2,14,19,06,054,,20,45,210,26,21,00,315,,23,53,210,25*76
$GPGSV,4,3,14,24,47,052,20,25,44,184,24,31,03,251,,32,30,307,20*74
$GPGSV,4,4,14,41,16,249,27,50,43,202,*76
$GLGSV,1,1,01,,,,03*67
$GNGLL,3815.83493,N,14051.91549,E,072623.00,A,D*7B
$GNRMC,072624.00,A,3815.83470,N,14051.91492,E,0.686,,031120,,,D*66
$GNVTG,,T,,M,0.686,N,1.270,K,D*34
$GNGGA,072624.00,3815.83470,N,14051.91492,E,2,07,1.68,63.3,M,36.8,M,,0000*76
$GNGSA,A,3,23,25,24,32,10,20,12,,,,,,4.87,1.68,4.58*10
$GNGSA,A,3,,,,,,,,,,,,,4.87,1.68,4.58*11
$GPGSV,4,1,14,10,57,269,30,12,64,117,22,15,26,116,10,17,02,037,*75
$GPGSV,4,2,14,19,06,054,,20,45,209,25,21,00,315,,23,53,210,25*7D
$GPGSV,4,3,14,24,47,052,20,25,44,184,24,31,03,251,,32,30,307,21*75
$GPGSV,4,4,14,41,16,249,,50,43,202,*73
$GLGSV,1,1,01,,,,03*67
$GNGLL,3815.83470,N,14051.91492,E,072624.00,A,D*76
$GNRMC,072625.00,A,3815.83445,N,14051.91427,E,0.604,,031120,,,D*65
$GNVTG,,T,,M,0.604,N,1.119,K,D*32
$GNGGA,072625.00,3815.83445,N,14051.91427,E,2,07,1.68,64.8,M,36.8,M,,0000*73
$GNGSA,A,3,23,25,24,32,10,20,12,,,,,,4.87,1.68,4.57*1F
$GNGSA,A,3,,,,,,,,,,,,,4.87,1.68,4.57*1E
$GPGSV,4,1,14,10,57,269,21,12,64,117,23,15,26,116,13,17,02,037,*77
$GPGSV,4,2,14,19,06,054,,20,45,209,24,21,00,315,,23,53,210,25*7C
$GPGSV,4,3,14,24,47,052,29,25,44,184,22,31,03,251,,32,30,307,20*7B
$GPGSV,4,4,14,41,16,249,,50,43,202,*73
$GLGSV,1,1,01,,,,19*6C
$GNGLL,3815.83445,N,14051.91427,E,072625.00,A,D*7F
$GNRMC,072626.00,A,3815.83461,N,14051.91374,E,1.111,,031120,,,D*63
$GNVTG,,T,,M,1.111,N,2.057,K,D*38
$GNGGA,072626.00,3815.83461,N,14051.91374,E,2,08,1.56,66.0,M,36.8,M,,0000*7F
$GNGSA,A,3,23,25,24,32,15,10,20,12,,,,,3.50,1.56,3.13*1C
$GNGSA,A,3,,,,,,,,,,,,,3.50,1.56,3.13*19
$GPGSV,4,1,14,10,57,269,22,12,64,117,30,15,26,116,15,17,02,037,*70
$GPGSV,4,2,14,19,06,054,,20,45,209,23,21,00,315,,23,53,210,23*7D
$GPGSV,4,3,14,24,47,052,21,25,44,184,21,31,03,251,,32,30,307,19*7A
$GPGSV,4,4,14,41,16,249,,50,43,202,*73
$GLGSV,1,1,00*65
$GNGLL,3815.83461,N,14051.91374,E,072626.00,A,D*7B
$GNRMC,072627.00,A,3815.83495,N,14051.91399,E,0.328,,031120,,,D*63
$GNVTG,,T,,M,0.328,N,0.608,K,D*3F
$GNGGA,072627.00,3815.83495,N,14051.91399,E,2,08,1.56,65.6,M,36.8,M,,0000*73
$GNGSA,A,3,23,25,24,32,15,10,20,12,,,,,3.50,1.56,3.13*1C
$GNGSA,A,3,,,,,,,,,,,,,3.50,1.56,3.13*19
$GPGSV,4,1,14,10,57,269,24,12,64,117,36,15,26,116,15,17,02,037,*70
$GPGSV,4,2,14,19,06,054,,20,45,209,24,21,00,315,,23,52,209,21*71
$GPGSV,4,3,14,24,47,052,32,25,44,184,19,31,03,251,,32,30,307,16*7C
$GPGSV,4,4,14,41,16,249,,50,43,202,*73
$GLGSV,1,1,01,,,,05*61
$GNGLL,3815.83495,N,14051.91399,E,072627.00,A,D*72
$GNRMC,072628.00,A,3815.83524,N,14051.91401,E,0.621,,031120,,,D*6D
$GNVTG,,T,,M,0.621,N,1.150,K,D*38
$GNGGA,072628.00,3815.83524,N,14051.91401,E,2,08,1.53,65.3,M,36.8,M,,0000*71
$GNGSA,A,3,23,25,24,32,15,10,20,12,,,,,3.15,1.53,2.76*1A
$GNGSA,A,3,,,,,,,,,,,,,3.15,1.53,2.76*1F
$GPGSV,4,1,14,10,57,269,23,12,64,117,17,15,26,116,13,17,02,037,*72
$GPGSV,4,2,14,19,06,054,,20,45,209,25,21,00,315,,23,52,209,21*70
$GPGSV,4,3,14,24,47,052,26,25,44,184,22,31,03,251,,32,30,307,11*76
$GPGSV,4,4,14,41,16,249,,50,43,202,*73
$GLGSV,1,1,01,,,,05*61
$GNGLL,3815.83524,N,14051.91401,E,072628.00,A,D*70
$GNRMC,072629.00,A,3815.83524,N,14051.91420,E,1.169,,031120,,,D*65
$GNVTG,,T,,M,1.169,N,2.165,K,D*37
$GNGGA,072629.00,3815.83524,N,14051.91420,E,2,08,1.53,66.1,M,36.8,M,,0000*72
$GNGSA,A,3,23,25,24,32,15,10,20,12,,,,,3.15,1.53,2.76*1A
$GNGSA,A,3,,,,,,,,,,,,,3.15,1.53,2.76*1F
$GPGSV,4,1,14,10,57,269,26,12,64,117,19,15,26,116,13,17,02,037,*79
$GPGSV,4,2,14,19,06,054,,20,45,209,23,21,00,315,,23,52,209,21*76
$GPGSV,4,3,14,24,47,052,27,25,45,184,20,31,03,251,,32,30,307,13*76
$GPGSV,4,4,14,41,16,249,27,50,43,202,*76
$GLGSV,1,1,01,,,,21*67
$GNGLL,3815.83524,N,14051.91420,E,072629.00,A,D*72
$GNRMC,072630.00,A,3815.83510,N,14051.91433,E,0.923,,031120,,,D*6F
$GNVTG,,T,,M,0.923,N,1.710,K,D*37
$GNGGA,072630.00,3815.83510,N,14051.91433,E,2,08,1.08,66.3,M,36.8,M,,0000*73
$GNGSA,A,3,23,25,24,32,15,10,20,12,,,,,2.30,1.08,2.03*10
$GNGSA,A,3,,,,,,,,,,,,,2.30,1.08,2.03*15
$GPGSV,4,1,14,10,57,269,27,12,64,117,22,15,26,116,15,17,02,037,*76
$GPGSV,4,2,14,19,06,054,,20,45,209,23,21,00,315,,23,52,209,22*75
$GPGSV,4,3,14,24,47,052,31,25,45,184,21,31,03,251,,32,30,307,14*77
$GPGSV,4,4,14,41,16,249,32,50,43,202,*72
$GLGSV,1,1,01,,,,21*67
$GNGLL,3815.83510,N,14051.91433,E,072630.00,A,D*7F
$GNRMC,072631.00,A,3815.83518,N,14051.91404,E,0.621,,031120,,,D*6F
$GNVTG,,T,,M,0.621,N,1.150,K,D*38
$GNGGA,072631.00,3815.83518,N,14051.91404,E,2,08,1.53,67.3,M,36.8,M,,0000*71
$GNGSA,A,3,23,25,24,32,15,10,20,12,,,,,3.15,1.53,2.76*1A
$GNGSA,A,3,,,,,,,,,,,,,3.15,1.53,2.76*1F
$GPGSV,4,1,14,10,57,269,24,12,64,117,24,15,26,116,13,17,02,037,*75
$GPGSV,4,2,14,19,06,054,,20,45,209,23,21,00,315,,23,52,209,23*74
$GPGSV,4,3,14,24,47,052,25,25,45,184,23,31,03,251,,32,30,307,15*71
$GPGSV,4,4,14,41,16,249,29,50,43,202,*78
$GLGSV,1,1,00*65
$GNGLL,3815.83518,N,14051.91404,E,072631.00,A,D*72
$GNRMC,072632.00,A,3815.83521,N,14051.91406,E,0.329,,031120,,,D*69
$GNVTG,,T,,M,0.329,N,0.609,K,D*3F
$GNGGA,072632.00,3815.83521,N,14051.91406,E,2,08,1.68,67.2,M,36.8,M,,0000*73
$GNGSA,A,3,23,25,24,32,15,10,20,12,,,,,4.21,1.68,3.86*1C
$GNGSA,A,3,,,,,,,,,,,,,4.21,1.68,3.86*19
$GPGSV,4,1,14,10,57,269,22,12,64,117,23,15,26,116,12,17,02,037,*75
$GPGSV,4,2,14,19,06,054,,20,45,209,23,21,00,315,,23,52,209,22*75
$GPGSV,4,3,14,24,47,052,24,25,45,184,24,31,03,251,,32,30,307,14*76
$GPGSV,4,4,14,41,16,249,,50,43,202,*73
$GLGSV,1,1,00*65
$GNGLL,3815.83521,N,14051.91406,E,072632.00,A,D*79
$GNRMC,072633.00,A,3815.83534,N,14051.91410,E,0.635,,031120,,,D*63
$GNVTG,,T,,M,0.635,N,1.175,K,D*3A
$GNGGA,072633.00,3815.83534,N,14051.91410,E,2,08,1.68,66.1,M,36.8,M,,0000*73
$GNGSA,A,3,23,25,24,32,15,10,20,12,,,,,4.21,1.68,3.86*1C
$GNGSA,A,3,,,,,,,,,,,,,4.21,1.68,3.86*19
$GPGSV,4,1,14,10,57,269,19,12,64,117,25,15,26,116,11,17,02,037,*78
$GPGSV,4,2,14,19,06,054,,20,45,209,25,21,00,315,,23,52,209,20*71
$GPGSV,4,3,14,24,47,052,24,25,45,184,26,31,03,251,,32,30,307,08*79
$GPGSV,4,4,14,41,16,249,,50,43,202,*73
$GLGSV,1,1,01,,,,03*67
$GNGLL,3815.83534,N,14051.91410,E,072633.00,A,D*7B
$GNRMC,072634.00,A,3815.83471,N,14051.91501,E,2.448,,031120,,,D*6F
$GNVTG,,T,,M,2.448,N,4.534,K,D*34
$GNGGA,072634.00,3815.83471,N,14051.91501,E,2,08,1.68,66.0,M,36.8,M,,0000*74
$GNGSA,A,3,23,25,24,32,15,10,20,12,,,,,4.21,1.68,3.86*1C
$GNGSA,A,3,,,,,,,,,,,,,4.21,1.68,3.86*19
$GPGSV,4,1,14,10,57,269,19,12,64,117,26,15,26,116,09,17,02,037,*72
$GPGSV,4,2,14,19,06,054,,20,45,209,24,21,00,315,,23,52,209,19*7A
$GPGSV,4,3,14,24,47,052,24,25,45,184,22,31,03,251,,32,30,307,07*72
$GPGSV,4,4,14,41,16,249,,50,43,202,*73
$GLGSV,1,1,00*65
$GNGLL,3815.83471,N,14051.91501,E,072634.00,A,D*7D
$GNRMC,072635.00,A,3815.83476,N,14051.91464,E,0.624,,031120,,,D*61
$GNVTG,,T,,M,0.624,N,1.156,K,D*3B
$GNGGA,072635.00,3815.83476,N,14051.91464,E,2,08,1.35,66.5,M,36.8,M,,0000*7D
$GNGSA,A,3,23,25,24,32,15,10,20,12,,,,,3.47,1.35,3.20*1F
$GNGSA,A,3,,,,,,,,,,,,,3.47,1.35,3.20*1A
$GPGSV,4,1,14,10,57,269,31,12,64,117,25,15,26,116,08,17,02,037,*7A
$GPGSV,4,2,14,19,06,054,,20,45,209,25,21,00,315,,23,52,209,19*7B
$GPGSV,4,3,14,24,47,052,22,25,45,184,21,31,03,251,,32,30,307,12*73
$GPGSV,4,4,14,41,16,249,,50,43,202,*73
$GLGSV,1,1,00*65
$GNGLL,3815.83476,N,14051.91464,E,072635.00,A,D*79
$GNRMC,072636.00,A,3815.83474,N,14051.91484,E,0.093,,031120,,,D*64
$GNVTG,,T,,M,0.093,N,0.172,K,D*36
$GNGGA,072636.00,3815.83474,N,14051.91484,E,2,08,1.08,67.2,M,36.8,M,,0000*7A
$GNGSA,A,3,23,25,24,32,15,10,20,12,,,,,2.30,1.08,2.03*10
$GNGSA,A,3,,,,,,,,,,,,,2.30,1.08,2.03*15
$GPGSV,4,1,14,10,57,269,32,12,64,117,24,15,26,116,13,17,02,037,*72
$GPGSV,4,2,14,19,06,054,,20,45,209,27,21,00,315,,23,52,209,20*73
$GPGSV,4,3,14,24,47,052,22,25,45,184,30,31,03,251,,32,30,307,12*73
$GPGSV,4,4,14,41,16,249,,50,43,202,28*79
$GLGSV,1,1,00*65
$GNGLL,3815.83474,N,14051.91484,E,072636.00,A,D*76
$GNRMC,072637.00,A,3815.83473,N,14051.91510,E,0.254,,031120,,,D*67
$GNVTG,,T,,M,0.254,N,0.470,K,D*38
$GNGGA,072637.00,3815.83473,N,14051.91510,E,2,08,1.29,67.0,M,36.8,M,,0000*71
$GNGSA,A,3,23,25,50,24,32,10,20,12,,,,,3.26,1.29,3.00*16
$GNGSA,A,3,,,,,,,,,,,,,3.26,1.29,3.00*12
$GPGSV,4,1,14,10,57,269,32,12,64,117,25,15,26,116,,17,02,037,*71
$GPGSV,4,2,14,19,06,054,,20,45,209,29,21,00,315,,23,52,209,20*7D
$GPGSV,4,3,14,24,47,052,19,25,45,184,34,31,03,251,,32,30,307,15*78
$GPGSV,4,4,14,41,16,249,,50,43,202,27*76
$GLGSV,1,1,01,,,,04*60
$GNGLL,3815.83473,N,14051.91510,E,072637.00,A,D*7C
$GNRMC,072638.00,A,3815.83493,N,14051.91507,E,0.099,,031120,,,D*63
$GNVTG,,T,,M,0.099,N,0.183,K,D*32
$GNGGA,072638.00,3815.83493,N,14051.91507,E,2,08,1.29,67.8,M,36.8,M,,0000*7E
$GNGSA,A,3,23,25,50,24,32,10,20,12,,,,,3.26,1.29,3.00*16
$GNGSA,A,3,,,,,,,,,,,,,3.26,1.29,3.00*12
$GPGSV,4,1,14,10,57,269,33,12,64,117,27,15,26,116,20,17,02,037,*70
$GPGSV,4,2,14,19,06,054,,20,45,209,29,21,00,315,,23,52,209,19*77
$GPGSV,4,3,14,24,47,052,18,25,45,184,35,31,03,251,,32,30,307,13*7E
$GPGSV,4,4,14,41,16,249,,50,43,202,27*76
$GLGSV,1,1,01,,,,05*61
$GNGLL,3815.83493,N,14051.91507,E,072638.00,A,D*7B
$GNRMC,072639.00,A,3815.83520,N,14051.91488,E,0.239,,031120,,,D*65
$GNVTG,,T,,M,0.239,N,0.443,K,D*33
$GNGGA,072639.00,3815.83520,N,14051.91488,E,2,08,1.29,67.6,M,36.8,M,,0000*7E
$GNGSA,A,3,23,25,50,24,32,10,20,12,,,,,3.26,1.29,3.00*16
$GNGSA,A,3,,,,,,,,,,,,,3.26,1.29,3.00*12
$GPGSV,4,1,14,10,57,269,33,12,64,117,27,15,26,116,20,17,02,037,*70
$GPGSV,4,2,14,19,06,054,,20,45,209,29,21,00,315,,23,52,209,18*76
$GPGSV,4,3,14,24,47,052,18,25,45,184,34,31,03,251,,32,30,307,17*7B
$GPGSV,4,4,14,41,16,249,,50,43,202,27*76
$GLGSV,2,1,05,,,,28,,,,24,,,,04,,,,27*6E
$GLGSV,2,2,05,,,,28*6A
$GNGLL,3815.83520,N,14051.91488,E,072639.00,A,D*75
$GNRMC,072640.00,A,3815.83521,N,14051.91481,E,0.041,,031120,,,D*6E
$GNVTG,,T,,M,0.041,N,0.075,K,D*3F
$GNGGA,072640.00,3815.83521,N,14051.91481,E,2,09,1.03,66.9,M,36.8,M,,0000*7F
$GNGSA,A,3,23,25,50,24,32,15,10,20,12,,,,2.24,1.03,1.99*1B
$GNGSA,A,3,,,,,,,,,,,,,2.24,1.03,1.99*1B
$GPGSV,4,1,14,10,57,269,33,12,64,117,27,15,26,116,20,17,02,037,*70
$GPGSV,4,2,14,19,06,054,,20,45,209,29,21,00,315,,23,52,209,18*76
$GPGSV,4,3,14,24,47,052,19,25,45,184,34,31,03,251,,32,30,307,19*74
$GPGSV,4,4,14,41,16,249,28,50,43,202,27*7C
$GLGSV,1,1,04,,,,14,,,,24,,,,19,,,,21*69
$GNGLL,3815.83521,N,14051.91481,E,072640.00,A,D*73
$GNRMC,072641.00,A,3815.83522,N,14051.91472,E,0.186,,031120,,,D*6A
$GNVTG,,T,,M,0.186,N,0.345,K,D*35
$GNGGA,072641.00,3815.83522,N,14051.91472,E,2,09,1.03,67.9,M,36.8,M,,0000*70
$GNGSA,A,3,23,25,50,24,32,15,10,20,12,,,,2.24,1.03,1.99*1B
$GNGSA,A,3,,,,,,,,,,,,,2.24,1.03,1.99*1B
$GPGSV,4,1,14,10,57,269,32,12,64,117,28,15,26,116,20,17,02,037,*7E
$GPGSV,4,2,14,19,06,054,,20,45,209,29,21,00,315,,23,52,209,19*77
$GPGSV,4,3,14,24,47,052,19,25,45,184,34,31,03,251,,32,30,307,19*74
$GPGSV,4,4,14,41,16,249,28,50,43,202,27*7C
$GLGSV,2,1,05,,,,26,,,,10,,,,23,,,,18*6E
$GLGSV,2,2,05,,,,26*64
$GNGLL,3815.83522,N,14051.91472,E,072641.00,A,D*7D
$GNRMC,072642.00,A,3815.83519,N,14051.91461,E,0.033,,031120,,,D*6C
$GNVTG,,T,,M,0.033,N,0.061,K,D*3F
$GNGGA,072642.00,3815.83519,N,14051.91461,E,2,09,1.08,69.1,M,36.8,M,,0000*74
$GNGSA,A,3,23,25,50,24,32,15,10,20,12,,,,2.30,1.08,2.03*15
$GNGSA,A,3,,,,,,,,,,,,,2.30,1.08,2.03*15
$GPGSV,4,1,14,10,57,269,31,12,64,117,28,15,26,116,20,17,02,037,*7D
$GPGSV,4,2,14,19,06,054,,20,45,209,28,21,00,315,,23,52,209,20*7C
$GPGSV,4,3,14,24,47,052,17,25,45,184,34,31,03,251,,32,30,307,18*7B
$GPGSV,4,4,14,41,16,249,27,50,43,202,27*73
$GLGSV,2,1,05,,,,05,,,,06,,,,24,,,,16*61
$GLGSV,2,2,05,,,,05*65
$GNGLL,3815.83519,N,14051.91461,E,072642.00,A,D*74
$GNRMC,072643.00,A,3815.83507,N,14051.91453,E,0.259,,031120,,,D*6D
$GNVTG,,T,,M,0.259,N,0.480,K,D*3A
$GNGGA,072643.00,3815.83507,N,14051.91453,E,2,08,1.08,70.2,M,36.8,M,,0000*71
$GNGSA,A,3,23,25,24,32,15,10,20,12,,,,,2.30,1.08,2.03*10
$GNGSA,A,3,,,,,,,,,,,,,2.30,1.08,2.03*15
$GPGSV,4,1,14,10,57,269,31,12,64,117,28,15,26,116,20,17,02,037,*7D
$GPGSV,4,2,14,19,06,054,,20,45,209,28,21,00,315,,23,52,209,21*7D
$GPGSV,4,3,14,24,47,052,15,25,45,184,34,31,03,251,,32,30,307,19*78
$GPGSV,4,4,14,41,16,249,27,50,43,202,*76
$GLGSV,1,1,03,,,,07,,,,16,,,,26*62
$GNGLL,3815.83507,N,14051.91453,E,072643.00,A,D*7B
$GNRMC,072644.00,A,3815.83516,N,14051.91452,E,0.112,,031120,,,D*67
$GNVTG,,T,,M,0.112,N,0.207,K,D*3F
$GNGGA,072644.00,3815.83516,N,14051.91452,E,2,08,1.53,70.1,M,36.8,M,,0000*7A
$GNGSA,A,3,23,25,24,32,15,10,20,12,,,,,3.15,1.53,2.75*19
$GNGSA,A,3,,,,,,,,,,,,,3.15,1.53,2.75*1C
$GPGSV,4,1,14,10,57,269,31,12,64,117,28,15,26,116,19,17,02,037,*77
$GPGSV,4,2,14,19,06,054,,20,45,209,28,21,00,315,,23,52,209,23*7F
$GPGSV,4,3,14,24,47,052,11,25,45,184,34,31,03,251,,32,30,307,19*7C
$GPGSV,4,4,14,41,16,249,27,50,43,202,*76
$GLGSV,1,1,03,,,,10,,,,20,,,,23*64
$GNGLL,3815.83516,N,14051.91452,E,072644.00,A,D*7D
$GNRMC,072645.00,A,3815.83520,N,14051.91460,E,0.151,,031120,,,D*65
$GNVTG,,T,,M,0.151,N,0.280,K,D*37
$GNGGA,072645.00,3815.83520,N,14051.91460,E,2,07,2.09,70.3,M,36.8,M,,0000*7E
$GNGSA,A,3,23,25,32,15,10,20,12,,,,,,3.54,2.09,2.85*19
$GNGSA,A,3,,,,,,,,,,,,,3.54,2.09,2.85*1A
$GPGSV,4,1,14,10,57,269,32,12,64,117,27,15,26,116,19,17,02,037,*7B
$GPGSV,4,2,14,19,06,054,,20,45,209,28,21,00,315,,23,52,209,23*7F
$GPGSV,4,3,14,24,47,052,08,25,45,184,33,31,03,251,,32,30,307,18*72
$GPGSV,4,4,14,41,16,249,27,50,43,202,*76
$GLGSV,1,1,02,,,,25,,,,22*60
$GNGLL,3815.83520,N,14051.91460,E,072645.00,A,D*78
$GNRMC,072646.00,A,3815.83511,N,14051.91463,E,0.180,,031120,,,D*6B
$GNVTG,,T,,M,0.180,N,0.333,K,D*32
$GNGGA,072646.00,3815.83511,N,14051.91463,E,2,08,1.53,70.4,M,36.8,M,,0000*78
$GNGSA,A,3,23,25,24,32,15,10,20,12,,,,,3.14,1.53,2.75*18
$GNGSA,A,3,,,,,,,,,,,,,3.14,1.53,2.75*1D
$GPGSV,4,1,14,10,57,269,33,12,64,117,25,15,26,116,18,17,02,037,*79
$GPGSV,4,2,14,19,06,054,,20,45,209,27,21,00,315,,23,52,209,25*76
$GPGSV,4,3,14,24,47,052,14,25,45,184,28,31,03,251,,32,30,307,19*74
$GPGSV,4,4,14,41,16,249,28,50,43,202,*79
$GLGSV,1,1,01,,,,24*62
$GNGLL,3815.83511,N,14051.91463,E,072646.00,A,D*7A
$GNRMC,072647.00,A,3815.83502,N,14051.91453,E,0.355,,031120,,,D*61
$GNVTG,,T,,M,0.355,N,0.658,K,D*30
$GNGGA,072647.00,3815.83502,N,14051.91453,E,2,08,1.53,70.8,M,36.8,M,,0000*74
$GNGSA,A,3,23,25,24,32,15,10,20,12,,,,,3.14,1.53,2.75*18
$GNGSA,A,3,,,,,,,,,,,,,3.14,1.53,2.75*1D
$GPGSV,4,1,14,10,57,269,31,12,64,117,25,15,26,116,18,17,02,037,*7B
$GPGSV,4,2,14,19,06,054,,20,45,209,24,21,00,315,,23,52,209,25*75
$GPGSV,4,3,14,24,47,052,17,25,45,184,32,31,03,251,,32,30,307,19*7C
$GPGSV,4,4,14,41,16,249,28,50,43,202,*79
$GLGSV,1,1,01,,,,24*62
$GNGLL,3815.83502,N,14051.91453,E,072647.00,A,D*7A
$GNRMC,072648.00,A,3815.83483,N,14051.91433,E,0.620,,031120,,,D*67
$GNVTG,,T,,M,0.620,N,1.148,K,D*30
$GNGGA,072648.00,3815.83483,N,14051.91433,E,2,08,1.53,71.3,M,36.8,M,,0000*7F
$GNGSA,A,3,23,25,24,32,15,10,20,12,,,,,3.14,1.53,2.75*18
$GNGSA,A,3,,,,,,,,,,,,,3.14,1.53,2.75*1D
$GPGSV,4,1,14,10,57,269,27,12,64,117,25,15,26,116,18,17,02,037,*7C
$GPGSV,4,2,14,19,06,054,,20,45,209,25,21,00,315,,23,52,209,25*74
$GPGSV,4,3,14,24,47,052,17,25,45,184,30,31,03,251,,32,30,307,19*7E
$GPGSV,4,4,14,41,16,249,,50,43,202,*73
$GLGSV,1,1,01,,,,05*61
$GNGLL,3815.83483,N,14051.91433,E,072648.00,A,D*7B
$GNRMC,072649.00,A,3815.83449,N,14051.91405,E,0.886,,031120,,,D*67
$GNVTG,,T,,M,0.886,N,1.641,K,D*3C
$GNGGA,072649.00,3815.83449,N,14051.91405,E,2,08,1.53,72.5,M,36.8,M,,0000*78
$GNGSA,A,3,23,25,24,32,15,10,20,12,,,,,3.14,1.53,2.75*18
$GNGSA,A,3,,,,,,,,,,,,,3.14,1.53,2.75*1D
$GPGSV,4,1,14,10,57,269,31,12,64,117,24,15,26,116,16,17,02,037,*74
$GPGSV,4,2,14,19,06,054,,20,45,209,24,21,00,315,,23,52,209,26*76
$GPGSV,4,3,14,24,47,052,14,25,45,184,31,31,03,251,,32,30,307,18*7D
$GPGSV,4,4,14,41,16,249,,50,43,202,*73
$GLGSV,1,1,01,,,,01*65
$GNGLL,3815.83449,N,14051.91405,E,072649.00,A,D*79
$GNRMC,072650.00,A,3815.83442,N,14051.91407,E,0.622,,031120,,,D*66
$GNVTG,,T,,M,0.622,N,1.152,K,D*39
$GNGGA,072650.00,3815.83442,N,14051.91407,E,2,08,1.53,73.2,M,36.8,M,,0000*7F
$GNGSA,A,3,23,25,24,32,15,10,20,12,,,,,3.14,1.53,2.75*18
$GNGSA,A,3,,,,,,,,,,,,,3.14,1.53,2.75*1D
$GPGSV,4,1,14,10,57,269,31,12,64,117,26,15,26,116,13,17,02,037,*73
$GPGSV,4,2,14,19,06,054,,20,45,209,24,21,00,315,,23,52,209,27*77
$GPGSV,4,3,14,24,47,052,13,25,45,184,32,31,03,251,,32,30,307,16*77
$GPGSV,4,4,14,41,16,249,,50,43,202,*73
$GLGSV,1,1,01,,,,05*61
$GNGLL,3815.83442,N,14051.91407,E,072650.00,A,D*78
$GNRMC,072651.00,A,3815.83448,N,14051.91425,E,0.314,,031120,,,D*6D
$GNVTG,,T,,M,0.314,N,0.582,K,D*31
$GNGGA,072651.00,3815.83448,N,14051.91425,E,2,08,1.53,72.8,M,36.8,M,,0000*7F
$GNGSA,A,3,23,25,24,32,15,10,20,12,,,,,3.14,1.53,2.75*18
$GNGSA,A,3,,,,,,,,,,,,,3.14,1.53,2.75*1D
$GPGSV,4,1,14,10,57,269,31,12,64,117,27,15,26,116,13,17,02,037,*72
$GPGSV,4,2,14,19,06,054,,20,45,209,24,21,00,315,,23,52,209,27*77
$GPGSV,4,3,14,24,47,052,13,25,45,184,32,31,03,251,,32,30,307,14*75
$GPGSV,4,4,14,41,16,249,,50,43,202,*73
$GLGSV,1,1,01,,,,06*62
$GNGLL,3815.83448,N,14051.91425,E,072651.00,A,D*73
$GNRMC,072652.00,A,3815.83446,N,14051.91419,E,0.269,,031120,,,D*64
$GNVTG,,T,,M,0.269,N,0.498,K,D*30
$GNGGA,072652.00,3815.83446,N,14051.91419,E,2,08,2.09,73.5,M,36.8,M,,0000*7D
$GNGSA,A,3,23,25,24,32,15,10,20,12,,,,,3.54,2.09,2.85*1F
$GNGSA,A,3,,,,,,,,,,,,,3.54,2.09,2.85*1A
$GPGSV,4,1,14,10,57,269,31,12,64,117,28,15,26,116,14,17,02,037,*7A
$GPGSV,4,2,14,19,06,054,,20,45,209,23,21,00,315,,23,52,209,27*70
$GPGSV,4,3,14,24,47,052,10,25,45,184,32,31,03,251,,32,30,307,13*71
$GPGSV,4,4,14,41,16,249,,50,43,202,*73
$GLGSV,1,1,01,,,,21*67
$GNGLL,3815.83446,N,14051.91419,E,072652.00,A,D*71
$GNRMC,072653.00,A,3815.83449,N,14051.91420,E,0.202,,031120,,,D*6D
$GNVTG,,T,,M,0.202,N,0.374,K,D*38
$GNGGA,072653.00,3815.83449,N,14051.91420,E,2,08,1.53,73.6,M,36.8,M,,0000*76
$GNGSA,A,3,23,25,24,32,15,10,20,12,,,,,3.14,1.53,2.75*18
$GNGSA,A,3,,,,,,,,,,,,,3.14,1.53,2.75*1D
$GPGSV,4,1,14,10,57,269,30,12,64,117,28,15,26,116,14,17,02,037,*7B
$GPGSV,4,2,14,19,06,054,,20,45,209,24,21,00,315,,23,52,209,28*78
$GPGSV,4,3,14,24,47,052,09,25,45,184,33,31,03,251,,32,30,307,14*7F
$GPGSV,4,4,14,41,16,249,,50,43,202,*73
$GLGSV,1,1,00*65
$GNGLL,3815.83449,N,14051.91420,E,072653.00,A,D*75
$GNRMC,072654.00,A,3815.83450,N,14051.91426,E,0.165,,031120,,,D*66
$GNVTG,,T,,M,0.165,N,0.306,K,D*3F
$GNGGA,072654.00,3815.83450,N,14051.91426,E,2,08,1.53,73.6,M,36.8,M,,0000*7F
$GNGSA,A,3,23,25,24,32,15,10,20,12,,,,,3.14,1.53,2.75*18
$GNGSA,A,3,,,,,,,,,,,,,3.14,1.53,2.75*1D
$GPGSV,4,1,14,10,57,269,30,12,64,117,27,15,26,116,13,17,02,037,*73
$GPGSV,4,2,14,19,06,054,,20,45,209,24,21,00,315,,23,52,209,27*77
$GPGSV,4,3,14,24,47,052,10,25,45,184,32,31,03,251,,32,30,307,13*71
$GPGSV,4,4,14,41,16,249,,50,43,202,*73
$GLGSV,1,1,00*65
$GNGLL,3815.83450,N,14051.91426,E,072654.00,A,D*7C
$GNRMC,072655.00,A,3815.83438,N,14051.91414,E,0.235,,031120,,,D*6E
$GNVTG,,T,,M,0.235,N,0.436,K,D*3D
$GNGGA,072655.00,3815.83438,N,14051.91414,E,2,08,1.53,74.2,M,36.8,M,,0000*72
$GNGSA,A,3,23,25,24,32,15,10,20,12,,,,,3.14,1.53,2.75*18
$GNGSA,A,3,,,,,,,,,,,,,3.14,1.53,2.75*1D
$GPGSV,4,1,14,10,57,269,30,12,64,117,26,15,26,116,12,17,02,037,*73
$GPGSV,4,2,14,19,06,054,,20,45,209,24,21,00,315,,23,52,209,27*77
$GPGSV,4,3,14,24,47,052,20,25,45,184,32,31,03,251,,32,30,307,12*73
$GPGSV,4,4,14,41,16,249,,50,43,202,*73
$GLGSV,1,1,00*65
$GNGLL,3815.83438,N,14051.91414,E,072655.00,A,D*72
$GNRMC,072656.00,A,3815.83435,N,14051.91417,E,0.237,,031120,,,D*61
$GNVTG,,T,,M,0.237,N,0.440,K,D*3E
$GNGGA,072656.00,3815.83435,N,14051.91417,E,2,06,2.97,74.1,M,36.8,M,,0000*79
$GNGSA,A,3,23,25,32,10,20,12,,,,,,,7.40,2.97,6.77*12
$GNGSA,A,3,,,,,,,,,,,,,7.40,2.97,6.77*15
$GPGSV,4,1,14,10,57,269,34,12,64,117,29,15,26,116,,17,02,037,*7B
$GPGSV,4,2,14,19,06,054,,20,45,209,32,21,00,315,,23,52,209,27*70
$GPGSV,4,3,14,24,47,052,08,25,45,184,33,31,03,251,,32,30,307,13*79
$GPGSV,4,4,14,41,16,249,,50,43,202,*73
$GLGSV,1,1,00*65
$GNGLL,3815.83435,N,14051.91417,E,072656.00,A,D*7F
$GNRMC,072657.00,A,3815.83445,N,14051.91440,E,0.134,,031120,,,D*65
$GNVTG,,T,,M,0.134,N,0.248,K,D*30
$GNGGA,072657.00,3815.83445,N,14051.91440,E,2,07,1.68,73.9,M,36.8,M,,0000*70
$GNGSA,A,3,23,25,24,32,10,20,12,,,,,,4.20,1.68,3.85*1A
$GNGSA,A,3,,,,,,,,,,,,,4.20,1.68,3.85*1B
$GPGSV,4,1,14,10,57,269,35,12,64,117,29,15,26,116,,17,02,037,*7A
$GPGSV,4,2,14,19,06,054,,20,45,209,35,21,00,315,,23,52,209,26*76
$GPGSV,4,3,14,24,47,052,28,25,45,184,34,31,03,251,,32,30,307,14*7B
$GPGSV,4,4,14,41,16,249,,50,43,202,*73
$GLGSV,1,1,00*65
$GNGLL,3815.83445,N,14051.91440,E,072657.00,A,D*7B
$GNRMC,072658.00,A,3815.83444,N,14051.91454,E,0.107,,031120,,,D*6E
$GNVTG,,T,,M,0.107,N,0.197,K,D*31
$GNGGA,072658.00,3815.83444,N,14051.91454,E,2,07,1.68,73.8,M,36.8,M,,0000*7A
$GNGSA,A,3,23,25,24,32,10,20,12,,,,,,4.20,1.68,3.85*1A
$GNGSA,A,3,,,,,,,,,,,,,4.20,1.68,3.85*1B
$GPGSV,4,1,14,10,57,269,35,12,64,117,28,15,26,116,14,17,02,037,*7E
$GPGSV,4,2,14,19,06,054,,20,45,209,31,21,00,315,,23,52,209,25*71
$GPGSV,4,3,14,24,47,052,30,25,45,184,33,31,03,251,,32,30,307,15*74
$GPGSV,4,4,14,41,16,249,27,50,43,202,*76
$GLGSV,1,1,00*65
$GNGLL,3815.83444,N,14051.91454,E,072658.00,A,D*70
$GNRMC,072659.00,A,3815.83445,N,14051.91460,E,0.053,,031120,,,D*69
$GNVTG,,T,,M,0.053,N,0.099,K,D*3E
